Fuel Type Code,Station Name,Street Address,Intersection Directions,City,State,ZIP,Plus4,Station Phone,Status Code,Expected Date,Groups With Access Code,Access Days Time,Cards Accepted,BD Blends,NG Fill Type Code,NG PSI,EV Level1 EVSE Num,EV Level2 EVSE Num,EV DC Fast Count,EV Other Info,EV Network,EV Network Web,Geocode Status,Latitude,Longitude,Date Last Confirmed,ID,Updated At,Owner Type Code,Federal Agency ID,Federal Agency Name,Open Date,Hydrogen Status Link,NG Vehicle Class,LPG Primary,E85 Blender Pump,EV Connector Types,Country,Intersection Directions (French),Access Days Time (French),BD Blends (French),Groups With Access Code (French),Hydrogen is Retail,Access Code,Access Detail Code,Federal Agency Code,Facility Type,CNG Dispenser Num,CNG On-Site Renewable Source,CNG Total Compression Capacity,CNG Storage Capacity,LNG On-Site Renewable Source,E85 Other Ethanol Blends,EV Pricing,EV Pricing (French),LPG Nozzle Types,Hydrogen Pressures,Hydrogen Standards,CNG Fill Type Code,CNG PSI,CNG Vehicle Class,LNG Vehicle Class,EV On-Site Renewable Source,Georeference,NYS Municipal Boundaries 2,New York Zip Codes 2,Counties 2
ELEC,Village of Sodus,14-16 Mill St,Enter municipal lot from Main or Gaylord Streets,Sodus,NY,14551,,315-483-9821,E,,Public,24 hours daily,,,,,,2.0,,,Non-Networked,,200-9,43.235555,-77.061621,2020-03-03T00:00:00.000,92116,2021-03-11 23:22:17,LG,,,2017-08-01T00:00:00.000,,,,,J1772,US,,,,Public,,public,,,MUNI_GOV,,,,,,,Free,,,,,,,,,,"{'type': 'Point', 'coordinates': [-77.061621, 43.235555]}",628,408,631
ELEC,DeNooyer Chevrolet,127 Wolf Rd,,Albany,NY,12205,,,E,,Public - Call ahead,Dealership business hours; 518-458-7700,,,,,,,1.0,,Non-Networked,,GPS,42.717867,-73.806317,2021-05-06T00:00:00.000,117741,2021-05-06 13:19:19,P,,,2019-01-01T00:00:00.000,,,,,J1772COMBO,US,,,,Public - Appeler à l'avance,,public,CALL,,CAR_DEALER,,,,,,,Free,,,,,,,,,,"{'type': 'Point', 'coordinates': [-73.806317, 42.717867]}",834,42,2030
ELEC,BRUNSWICK HD BRUNSWICK HD2,1130 Hoosick Rd,,Troy,NY,12180,,888-758-4389,E,,Public,24 hours daily,,,,,,2.0,,,ChargePoint Network,{'url': 'http://www.chargepoint.com/'},GPS,42.75888,-73.60228,2021-07-15T00:00:00.000,150341,2021-07-15 00:25:19,,,,2019-12-19T00:00:00.000,,,,,J1772,US,,,,Public,,public,,,,,,,,,,,,,,,,,,,,"{'type': 'Point', 'coordinates': [-73.60228, 42.75888]}",130,11,2138
ELEC,AL SIGL WOLK,1600 South Ave,,Rochester,NY,14620,,888-758-4389,E,,Public,24 hours daily,,,,,,2.0,,,ChargePoint Network,{'url': 'http://www.chargepoint.com/'},GPS,43.123642,-77.61388,2021-07-15T00:00:00.000,163584,2021-07-15 00:25:19,,,,2020-06-24T00:00:00.000,,,,,J1772,US,,,,Public,,public,,,,,,,,,,,,,,,,,,,,"{'type': 'Point', 'coordinates': [-77.61388, 43.123642]}",537,1679,2093
ELEC,LaGrangeville Tops Market,16 John J Wagner Way,,LaGrangeville,NY,12540,,855-900-7584,E,,Public,24 hours daily,,,,,,,4.0,,Greenlots,{'url': 'http://greenlots.com/'},200-9,41.667907,-73.795294,2021-07-15T00:00:00.000,164367,2021-07-15 01:10:31,,,,2020-07-18T00:00:00.000,,,,,CHADEMO J1772COMBO,US,,,,Public,,public,,,,,,,,,,,,,,,,,,,,"{'type': 'Point', 'coordinates': [-73.795294, 41.667907]}",594,979,2040
ELEC,Hatchet Hardware of Waterford,42 Saratoga Ave,,Waterford,NY,12188,,888-356-8911,E,,Public,24 hours daily,,,,,,2.0,,,FLO,{'url': 'https://flo.ca/'},GPS,42.782254,-73.696148,2021-07-15T00:00:00.000,165117,2021-07-15 01:21:37,,,,2020-08-11T00:00:00.000,,,,,J1772,US,,,,Public,,public,,,,,,,,,,,,,,,,,,,,"{'type': 'Point', 'coordinates': [-73.696148, 42.782254]}",992,18,2030
ELEC,LANDMARK ALBANY LANDMARK ALBANY,100 Sandidge Way,,Albany,NY,12203,,888-758-4389,E,,Public,24 hours daily,,,,,,2.0,,,ChargePoint Network,{'url': 'http://www.chargepoint.com/'},GPS,42.687836,-73.83313,2021-07-15T00:00:00.000,169976,2021-07-15 00:25:19,,,,2020-12-08T00:00:00.000,,,,,J1772,US,,,,Public,,public,,,,,,,,,,,,,,,,,,,,"{'type': 'Point', 'coordinates': [-73.83313, 42.687836]}",814,40,2030
ELEC,BP CENTEREACH,3117 Nesconset Hwy,,Centereach,NY,11720,,888-758-4389,E,,Public,24 hours daily,,,,,,,1.0,,ChargePoint Network,{'url': 'http://www.chargepoint.com/'},GPS,40.887839,-73.097965,2021-07-15T00:00:00.000,190944,2021-07-15 00:25:19,,,,2021-06-12T00:00:00.000,,,,,CHADEMO J1772COMBO,US,,,,Public,,public,,,,,,,,,,,,,,,,,,,,"{'type': 'Point', 'coordinates': [-73.097965, 40.887839]}",1022,1077,2179
ELEC,NATIONAL GRID JEFFERSON 2,1220 Coffeen street,,Watertown,NY,13601,,888-758-4389,E,,Public,24 hours daily,,,,,,1.0,,,ChargePoint Network,{'url': 'http://www.chargepoint.com/'},GPS,43.992677,-75.932725,2021-07-15T00:00:00.000,180124,2021-07-15 00:25:19,,,,2021-01-27T00:00:00.000,,,,,J1772,US,,,,Public,,public,,,,,,,,,,,,,,,,,,,,"{'type': 'Point', 'coordinates': [-75.932725, 43.992677]}",841,1466,2089
ELEC,Rapidpark 9-11 W 100th Street - Tesla Destination,9 W 100th St,,New York,NY,10024,,212-531-4228  877-798-3752,E,,Public,24 hours daily; see valet for access,,,,,,3.0,,,Tesla Destination,{'url': 'https://www.tesla.com/destination-charging'},200-9,40.794681,-73.963228,2020-11-03T00:00:00.000,115192,2021-03-11 23:22:17,P,,,2017-03-01T00:00:00.000,,,,,J1772 TESLA,US,,,,Public,,public,,,PAY_GARAGE,,,,,,,Free,,,,,,,,,,"{'type': 'Point', 'coordinates': [-73.963228, 40.794681]}",749,752,2095
ELEC,CASE CENTER LOT PALAMOUNTAIN,Perimeter Rd,,Saratoga Springs,NY,12866,,888-758-4389,E,,Public,24 hours daily,,,,,,2.0,,,ChargePoint Network,{'url': 'http://www.chargepoint.com/'},GPS,43.098201,-73.783743,2021-07-15T00:00:00.000,123549,2021-07-15 00:25:19,,,,2019-06-05T00:00:00.000,,,,,J1772,US,,,,Public,,public,,,,,,,,,,,,,,,,,,,,"{'type': 'Point', 'coordinates': [-73.783743, 43.098201]}",994,147,2141
ELEC,Legend Nissan,268 Jericho Turnpike,,Syosset,NY,11791,,516-496-8181,E,,Public,Dealership business hours,,,,,,1.0,,,Non-Networked,,200-9,40.809865,-73.507761,2020-06-09T00:00:00.000,44203,2021-03-11 23:22:17,P,,,2011-11-30T00:00:00.000,,,,,J1772,US,,,,Public,,public,,,CAR_DEALER,,,,,,,Free,,,,,,,,,,"{'type': 'Point', 'coordinates': [-73.507761, 40.809865]}",59,1431,2094
ELEC,SHINEMAN SOUTH SHINEMAN 03,309 Washington Blvd SUNY Oswego PERMIT REQUIR,,Oswego,NY,13126,,888-758-4389,E,,Public,24 hours daily,,,,,,2.0,,,ChargePoint Network,{'url': 'http://www.chargepoint.com/'},GPS,43.454273,-76.537776,2021-07-15T00:00:00.000,180160,2021-07-15 00:25:19,,,,2021-01-27T00:00:00.000,,,,,J1772,US,,,,Public,,public,,,,,,,,,,,,,,,,,,,,"{'type': 'Point', 'coordinates': [-76.537776, 43.454273]}",239,667,2135
ELEC,N SYR  LOT N SYRACUSE,106 Fergerson Ave,,Syracuse,NY,13212,,888-758-4389,E,,Public,24 hours daily,,,,,,2.0,,,ChargePoint Network,{'url': 'http://www.chargepoint.com/'},GPS,43.135279,-76.130647,2021-07-15T00:00:00.000,162142,2021-07-15 00:25:19,,,,2020-06-12T00:00:00.000,,,,,J1772,US,,,,Public,,public,,,,,,,,,,,,,,,,,,,,"{'type': 'Point', 'coordinates': [-76.130647, 43.135279]}",703,730,2132
ELEC,Marshall & Sons,701 Montauk Hwy,,Montauk,NY,11954,,866-816-7584,E,,Public - Credit card at all times,24 hours daily,A D Debit M V,,,,,4.0,,,EV Connect,{'url': 'http://evconnect.com/'},GPS,41.033512,-71.94654,2020-07-13T00:00:00.000,163945,2021-03-11 23:22:17,P,,,2020-06-26T00:00:00.000,,,,,J1772,US,,,,Public - Carte de crédit en tout temps,,public,CREDIT_CARD_ALWAYS,,FUEL_RESELLER,,,,,,,,,,,,,,,,,"{'type': 'Point', 'coordinates': [-71.94654, 41.033512]}",1021,1637,2179
ELEC,Staples Plaza - Tesla Supercharger,3379 Crompond Road,,Yorktown Heights,NY,10589,,877-798-3752,E,,Public,24 hours daily; for Tesla use only,,,,,,,12.0,,Tesla,{'url': 'http://www.teslamotors.com/supercharger'},200-8,41.2905,-73.8325,2020-08-10T00:00:00.000,149366,2021-03-11 23:22:17,P,,,2019-09-30T00:00:00.000,,,,,TESLA,US,,,,Public,,public,,,,,,,,,,$0.28 per kWh; $0.26 per minute above 60 kW and $0.13 per minute at or below 60 kW,,,,,,,,,,"{'type': 'Point', 'coordinates': [-73.8325, 41.2905]}",947,1352,2185
ELEC,799 SENECA STATION 14,799 Seneca St,,Buffalo,NY,14210,,888-758-4389,E,,Public,Mon 5:00pm - 10:00pm; Tue 5:00pm - 10:00pm; Wed 5:00pm - 10:00pm; Thu 5:00pm - 10:00pm; Fri 5:00pm - 10:00pm; Sat 8:00am - 10:00pm; Sun 8:00am - 10:00pm,,,,,,1.0,,,ChargePoint Network,{'url': 'http://www.chargepoint.com/'},GPS,42.875099,-78.847289,2021-07-15T00:00:00.000,191253,2021-07-15 00:25:19,,,,2021-06-19T00:00:00.000,,,,,J1772,US,,,,Public,,public,,,,,,,,,,,,,,,,,,,,"{'type': 'Point', 'coordinates': [-78.847289, 42.875099]}",300,66,2041
ELEC,HUDSON VALLEY VW_408151_A,1148 Old Rte 9,,Wappingers Falls,NY,12590,,888-758-4389,E,,Public,24 hours daily,,,,,,2.0,,,ChargePoint Network,{'url': 'http://www.chargepoint.com/'},GPS,41.566517,-73.906339,2021-07-15T00:00:00.000,162428,2021-07-15 00:25:19,,,,2020-06-12T00:00:00.000,,,,,J1772,US,,,,Public,,public,,,,,,,,,,,,,,,,,,,,"{'type': 'Point', 'coordinates': [-73.906339, 41.566517]}",604,1018,2040
ELEC,STATION 1 SCRIBNERS,13 Scribner Hollow Rd,,Hunter,NY,12442,,888-758-4389,E,,Public,24 hours daily,,,,,,2.0,,,ChargePoint Network,{'url': 'http://www.chargepoint.com/'},GPS,42.203996,-74.196529,2021-07-15T00:00:00.000,162331,2021-07-15 00:25:19,,,,2020-06-12T00:00:00.000,,,,,J1772,US,,,,Public,,public,,,,,,,,,,,,,,,,,,,,"{'type': 'Point', 'coordinates': [-74.196529, 42.203996]}",755,192,2087
ELEC,Mather Hospital,75 North County Rd,,Port Jefferson,NY,11777,,866-816-7584,E,,Public,24 hours daily,,,,,,4.0,,,EV Connect,{'url': 'http://evconnect.com/'},GPS,40.93961,-73.053579,2021-03-15T00:00:00.000,185627,2021-03-15 13:14:11,P,,,,,,,,J1772,US,,,,Public,,public,,,HOSPITAL,,,,,,,,,,,,,,,,,"{'type': 'Point', 'coordinates': [-73.053579, 40.93961]}",1022,1324,2179
ELEC,Gedney Park,155 Millwood Rd,,Chappaqua,NY,10514,,866-816-7584,E,,Public,24 hours daily,,,,,,1.0,,,EV Connect,{'url': 'http://evconnect.com/'},GPS,41.184415,-73.7961799999999,2020-04-08T00:00:00.000,123070,2021-03-11 23:22:17,P,,,2019-04-01T00:00:00.000,,,,,J1772,US,,,,Public,,public,,,PARK,,,,,,,,,,,,,,,,,"{'type': 'Point', 'coordinates': [-73.7961799999999, 41.184415]}",961,1202,2185
ELEC,LOCKS PLAZA LOCK PLAZA,1 Locks Plaza,,Lockport,NY,14094,,888-758-4389,E,,Public,24 hours daily,,,,,,2.0,,,ChargePoint Network,{'url': 'http://www.chargepoint.com/'},GPS,43.16932,-78.695433,2021-07-15T00:00:00.000,162160,2021-07-15 00:25:19,,,,2020-06-12T00:00:00.000,,,,,J1772,US,,,,Public,,public,,,,,,,,,,,,,,,,,,,,"{'type': 'Point', 'coordinates': [-78.695433, 43.16932]}",163,930,2131
ELEC,S.A.N.Y. STATION THREE,1001 Park Ave,,Syracuse,NY,13204,,888-758-4389,E,,Public,24 hours daily,,,,,,1.0,,,ChargePoint Network,{'url': 'http://www.chargepoint.com/'},GPS,43.051933,-76.180115,2021-07-15T00:00:00.000,165173,2021-07-15 00:25:19,,,,2020-08-12T00:00:00.000,,,,,J1772,US,,,,Public,,public,,,,,,,,,,,,,,,,,,,,"{'type': 'Point', 'coordinates': [-76.180115, 43.051933]}",687,713,2132
ELEC,VILLAGEHALL RHINEBECK 2,55 E Market St,,Rhinebeck,NY,12572,,888-758-4389,E,,Public,24 hours daily,,,,,,2.0,,,ChargePoint Network,{'url': 'http://www.chargepoint.com/'},GPS,41.927273,-73.91065,2021-07-15T00:00:00.000,175155,2021-07-15 00:25:19,,,,2021-01-27T00:00:00.000,,,,,J1772,US,,,,Public,,public,,,,,,,,,,,,,,,,,,,,"{'type': 'Point', 'coordinates': [-73.91065, 41.927273]}",607,1006,2040
ELEC,NATIONAL GRID SUNY IT,Campus Loop Rd,,Utica,NY,13502,,888-758-4389,E,,Public,24 hours daily,,,,,,2.0,,,ChargePoint Network,{'url': 'http://www.chargepoint.com/'},GPS,43.135329,-75.227342,2021-07-15T00:00:00.000,162236,2021-07-15 00:25:19,,,,2020-06-12T00:00:00.000,,,,,J1772,US,,,,Public,,public,,,,,,,,,,,,,,,,,,,,"{'type': 'Point', 'coordinates': [-75.227342, 43.135329]}",923,1465,625
ELEC,Parkit 10 Wooster St. - Tesla Destination,6-10 Wooster St,,New York,NY,10013,,212-431-1034  877-798-3752,E,,Public,24 hours daily; for customer use only; see valet for access,,,,,,3.0,,,Tesla Destination,{'url': 'https://www.tesla.com/destination-charging'},200-9,40.721131,-74.00357,2020-11-03T00:00:00.000,115174,2021-03-11 23:22:17,P,,,2015-02-01T00:00:00.000,,,,,J1772 TESLA,US,,,,Public,,public,,,PAY_GARAGE,,,,,,,Free,,,,,,,,,,"{'type': 'Point', 'coordinates': [-74.00357, 40.721131]}",749,737,2095
ELEC,"Walgreens - Brooklyn, NY #15097",589 Prospect Avenue,"$2.00 first hour, billed at start. $2.00 per plug hour thereafter.",Brooklyn,NY,11215,,800-663-5633,E,,Public,MO: 12:00am-12:00am; TU: 12:00am-12:00am; WE: 12:00am-12:00am; TH: 12:00am-12:00am; FR: 12:00am-12:00am; SA: 12:00am-12:00am; SU: 12:00am-12:00am,,,,,,1.0,,,SemaCharge Network,{'url': 'https://semaconnect.com/'},GPS,40.6567801,-73.9777597,2021-07-15T00:00:00.000,148167,2021-07-15 00:17:31,,,,2018-10-09T00:00:00.000,,,,,J1772,US,,,,Public,,public,,,,,,,,,,$2.00/Hr Parking Fee,,,,,,,,,,"{'type': 'Point', 'coordinates': [-73.9777597, 40.6567801]}",894,893,2090
ELEC,OSSINING TOWN CEDAR LANE,Cedar Lane Park 235 Cedar Lane,,Ossining,NY,10562,,888-758-4389,E,,Public,24 hours daily,,,,,,2.0,,,ChargePoint Network,{'url': 'http://www.chargepoint.com/'},GPS,41.191609,-73.854692,2021-07-15T00:00:00.000,162298,2021-07-15 00:25:19,,,,2020-06-12T00:00:00.000,,,,,J1772,US,,,,Public,,public,,,,,,,,,,,,,,,,,,,,"{'type': 'Point', 'coordinates': [-73.854692, 41.191609]}",961,1333,2185
ELEC,Rapidpark 44 State Street - Tesla Destination,44 State St,,Brooklyn,NY,11201,,718-624-5955  877-798-3752,E,,Public,24 hours daily; see valet for access,,,,,,3.0,,,Tesla Destination,{'url': 'https://www.tesla.com/destination-charging'},200-8,40.691871,-73.998307,2020-11-03T00:00:00.000,114905,2021-03-11 23:22:17,P,,,2017-09-01T00:00:00.000,,,,,J1772 TESLA,US,,,,Public,,public,,,PAY_GARAGE,,,,,,,Free,,,,,,,,,,"{'type': 'Point', 'coordinates': [-73.998307, 40.691871]}",894,880,2090
ELEC,AUSTERLITZ EVSE AUSTERLITZ EVSE,812 NY-203,,Spencertown,NY,12165,,888-758-4389,E,,Public,24 hours daily,,,,,,2.0,,,ChargePoint Network,{'url': 'http://www.chargepoint.com/'},GPS,42.323037,-73.545487,2021-07-15T00:00:00.000,162193,2021-07-15 00:25:19,,,,2020-06-12T00:00:00.000,,,,,J1772,US,,,,Public,,public,,,,,,,,,,,,,,,,,,,,"{'type': 'Point', 'coordinates': [-73.545487, 42.323037]}",526,1161,619
ELEC,Bristol Harbour Resort,5410 Seneca Point Rd,,Canandaigua,NY,14424,,585-396-0060,E,,Public,Resort business hours; guest and visitor use only,,,,,,1.0,,,Non-Networked,,GPS,42.753957,-77.336811,2020-06-09T00:00:00.000,62508,2021-03-11 23:22:17,P,,,2014-07-15T00:00:00.000,,,,,J1772,US,,,,Public,,public,,,HOTEL,,,,,,,Free,,,,,,,,,,"{'type': 'Point', 'coordinates': [-77.336811, 42.753957]}",800,178,2133
ELEC,610 Warren Street - Tesla Destination,610 Warren Street,,Brooklyn,NY,11217,,877-798-3752  877-798-3752,E,,Public,24 hours daily; for customer use only; see front desk for access,,,,,,6.0,,,Tesla Destination,{'url': 'https://www.tesla.com/destination-charging'},200-9,40.681274,-73.981216,2020-11-03T00:00:00.000,168558,2021-03-11 23:22:17,P,,,2020-11-03T00:00:00.000,,,,,TESLA,US,,,,Public,,public,,,,,,,,,,Free,,,,,,,,,,"{'type': 'Point', 'coordinates': [-73.981216, 40.681274]}",894,895,2090
ELEC,WFM - NORTHEAST WHOLE FOODS 2,214 3rd St,,Gowanus,NY,11215,,888-758-4389,E,,Public,24 hours daily,,,,,,2.0,,,ChargePoint Network,{'url': 'http://www.chargepoint.com/'},GPS,40.674884,-73.989524,2021-07-15T00:00:00.000,154371,2021-07-15 00:25:19,,,,2020-03-07T00:00:00.000,,,,,J1772,US,,,,Public,,public,,,,,,,,,,,,,,,,,,,,"{'type': 'Point', 'coordinates': [-73.989524, 40.674884]}",894,893,2090
ELEC,Cabela's Crossing - Tesla Supercharger,2013 Walden Avenue,,Cheektowaga,NY,14225,,877-798-3752,E,,Public,24 hours daily; for Tesla use only,,,,,,,8.0,,Tesla,{'url': 'http://www.teslamotors.com/supercharger'},GPS,42.907291,-78.7622,2020-08-10T00:00:00.000,153790,2021-03-11 23:22:17,P,,,2020-02-14T00:00:00.000,,,,,TESLA,US,,,,Public,,public,,,RESTAURANT,,,,,,,$0.28 per kWh; $0.26 per minute above 60 kW and $0.13 per minute at or below 60 kW,,,,,,,,,,"{'type': 'Point', 'coordinates': [-78.7622, 42.907291]}",298,160,2041
ELEC,854ELLICOTT 134 HIGH ST 7,1040 Michigan Ave,,Buffalo,NY,14203,,888-758-4389,E,,Public,24 hours daily,,,,,,2.0,,,ChargePoint Network,{'url': 'http://www.chargepoint.com/'},GPS,42.901386,-78.863949,2021-07-15T00:00:00.000,181847,2021-07-15 00:25:19,,,,2021-01-27T00:00:00.000,,,,,J1772,US,,,,Public,,public,,,,,,,,,,,,,,,,,,,,"{'type': 'Point', 'coordinates': [-78.863949, 42.901386]}",300,34,2041
ELEC,MOHAWK HARBOR01 STATION #4,200 Harborside Dr,,Schenectady,NY,12305,,888-758-4389,E,,Public,24 hours daily,,,,,,2.0,,,ChargePoint Network,{'url': 'http://www.chargepoint.com/'},GPS,42.824318,-73.931979,2021-07-15T00:00:00.000,181904,2021-07-15 00:25:19,,,,2021-01-27T00:00:00.000,,,,,J1772,US,,,,Public,,public,,,,,,,,,,,,,,,,,,,,"{'type': 'Point', 'coordinates': [-73.931979, 42.824318]}",104,74,2142
ELEC,IMPark 353 4th Ave - Tesla Destination,353 4th Ave,,Brooklyn,NY,11215,,212-937-8660  877-798-3752,E,,Public,24 hours daily; pay lot; see valet for access,,,,,,4.0,,,Tesla Destination,{'url': 'https://www.tesla.com/destination-charging'},200-8,40.672845,-73.986284,2020-11-03T00:00:00.000,122475,2021-03-11 23:22:17,P,,,2019-03-01T00:00:00.000,,,,,TESLA,US,,,,Public,,public,,,,,,,,,,Free,,,,,,,,,,"{'type': 'Point', 'coordinates': [-73.986284, 40.672845]}",894,893,2090
ELEC,SUNY BUFFALO PARKER 1,185 Hayes Rd,,Buffalo,NY,14214,,888-758-4389,E,,Public,24 hours daily,,,,,,2.0,,,ChargePoint Network,{'url': 'http://www.chargepoint.com/'},GPS,42.951099,-78.822518,2021-07-15T00:00:00.000,182228,2021-07-15 00:25:19,,,,2021-01-27T00:00:00.000,,,,,J1772,US,,,,Public,,public,,,,,,,,,,,,,,,,,,,,"{'type': 'Point', 'coordinates': [-78.822518, 42.951099]}",300,70,2041
ELEC,Shults Nissan,311 Fluvanna Ave,,Jamestown,NY,14701,,716-484-2780,E,,Public - Call ahead,Dealership business hours,,,,,,1.0,,,Non-Networked,,200-9,42.115661,-79.253776,2020-06-09T00:00:00.000,49932,2021-03-11 23:22:17,P,,,2012-10-25T00:00:00.000,,,,,J1772,US,,,,Public - Appeler à l'avance,,public,CALL,,CAR_DEALER,,,,,,,Free,,,,,,,,,,"{'type': 'Point', 'coordinates': [-79.253776, 42.115661]}",209,1687,2035
ELEC,SUNY BUFFALO PARKER 6,185 Hayes Rd,,Buffalo,NY,14214,,888-758-4389,E,,Public,24 hours daily,,,,,,2.0,,,ChargePoint Network,{'url': 'http://www.chargepoint.com/'},GPS,42.951019,-78.822603,2021-07-15T00:00:00.000,182223,2021-07-15 00:25:19,,,,2021-01-27T00:00:00.000,,,,,J1772,US,,,,Public,,public,,,,,,,,,,,,,,,,,,,,"{'type': 'Point', 'coordinates': [-78.822603, 42.951019]}",300,70,2041
ELEC,HGI TROY HILTON TROY 1.2,243 Hoosick St,,Troy,NY,12180,,888-758-4389,E,,Public,24 hours daily,,,,,,2.0,,,ChargePoint Network,{'url': 'http://www.chargepoint.com/'},GPS,42.739586,-73.67092,2021-07-15T00:00:00.000,175418,2021-07-15 00:25:19,,,,2021-01-27T00:00:00.000,,,,,J1772,US,,,,Public,,public,,,,,,,,,,,,,,,,,,,,"{'type': 'Point', 'coordinates': [-73.67092, 42.739586]}",110,11,2138
ELEC,EXECUTIVE PARK #1,2 Executive Blvd,,Montebello,NY,10901,,888-758-4389,E,,Public,24 hours daily,,,,,,2.0,,,ChargePoint Network,{'url': 'http://www.chargepoint.com/'},GPS,41.12019,-74.11686,2021-07-15T00:00:00.000,175755,2021-07-15 00:25:19,,,,2021-01-27T00:00:00.000,,,,,J1772,US,,,,Public,,public,,,,,,,,,,,,,,,,,,,,"{'type': 'Point', 'coordinates': [-74.11686, 41.12019]}",529,1454,628
ELEC,JLRWHITEPLAINS STATION 01,265 east Main Street,,White Plains,NY,10601,,888-758-4389,E,,Public,24 hours daily,,,,,,1.0,,,ChargePoint Network,{'url': 'http://www.chargepoint.com/'},GPS,41.034269,-73.764702,2021-07-15T00:00:00.000,162281,2021-07-15 00:25:19,,,,2020-06-12T00:00:00.000,,,,,J1772,US,,,,Public,,public,,,,,,,,,,,,,,,,,,,,"{'type': 'Point', 'coordinates': [-73.764702, 41.034269]}",949,1435,2185
ELEC,STRONG MUSEUM STRONG L1 #2,1 Manhattan Square Dr,,Rochester,NY,14607,,888-758-4389,E,,Public,Mon 8:00am - 5:00pm; Tue 8:00am - 5:00pm; Wed 8:00am - 5:00pm; Thu 8:00am - 5:00pm; Fri 8:00am - 8:00pm; Sat 8:00am - 8:00pm; Sun 8:00am - 5:00pm,,,,,,2.0,,,ChargePoint Network,{'url': 'http://www.chargepoint.com/'},GPS,43.152099,-77.600934,2021-07-15T00:00:00.000,174553,2021-07-15 00:25:19,,,,2021-01-27T00:00:00.000,,,,,J1772,US,,,,Public,,public,,,,,,,,,,,,,,,,,,,,"{'type': 'Point', 'coordinates': [-77.600934, 43.152099]}",537,1665,2093
ELEC,MP 225 LLC NS1-100 JAY ST,100 Jay St,,New York,NY,11201,,888-758-4389,E,,Public,24 hours daily,,,,,,2.0,,,ChargePoint Network,{'url': 'http://www.chargepoint.com/'},GPS,40.70182,-73.986824,2021-07-15T00:00:00.000,162487,2021-07-15 00:25:19,,,,2020-06-12T00:00:00.000,,,,,J1772,US,,,,Public,,public,,,,,,,,,,,,,,,,,,,,"{'type': 'Point', 'coordinates': [-73.986824, 40.70182]}",894,880,2095
ELEC,ATRIUM EVCHARGE PRC-EV1,634 Plank Rd,,Clifton Park,NY,12065,,888-758-4389,E,,Public,24 hours daily,,,,,,2.0,,,ChargePoint Network,{'url': 'http://www.chargepoint.com/'},GPS,42.866741,-73.77799,2021-07-15T00:00:00.000,174928,2021-07-15 00:25:19,,,,2021-01-27T00:00:00.000,,,,,J1772,US,,,,Public,,public,,,,,,,,,,,,,,,,,,,,"{'type': 'Point', 'coordinates': [-73.77799, 42.866741]}",1009,1190,2141
ELEC,Pratt and Whitney HMI Metal Powders,2395 Main St,,Clayville,NY,13322,,866-816-7584,E,,Public - Credit card at all times,24 hours daily; Also accepts Paypal,A D M V,,,,,2.0,,,EV Connect,{'url': 'http://evconnect.com/'},200-9,42.97801,-75.249586,2020-10-09T00:00:00.000,166427,2021-03-11 23:22:17,P,,,2020-01-16T00:00:00.000,,,,,J1772,US,,,,Public - Carte de crédit en tout temps,,public,CREDIT_CARD_ALWAYS,,FACTORY,,,,,,,,,,,,,,,,,"{'type': 'Point', 'coordinates': [-75.249586, 42.97801]}",920,536,625
ELEC,HUDSON PRESERVE BLDG 22 #2,1901 Beryl Way,,Watervliet,NY,12189,,888-758-4389,E,,Public,24 hours daily,,,,,,2.0,,,ChargePoint Network,{'url': 'http://www.chargepoint.com/'},GPS,42.733055,-73.728065,2021-07-15T00:00:00.000,174205,2021-07-15 00:25:19,,,,2021-01-27T00:00:00.000,,,,,J1772,US,,,,Public,,public,,,,,,,,,,,,,,,,,,,,"{'type': 'Point', 'coordinates': [-73.728065, 42.733055]}",834,19,2030
ELEC,SUNY ADIRONDACK SUNY ACC 1.5,640 Bay Rd,,Queensbury,NY,12804,,888-758-4389,E,,Public,24 hours daily,,,,,,2.0,,,ChargePoint Network,{'url': 'http://www.chargepoint.com/'},GPS,43.355152,-73.65409,2021-07-15T00:00:00.000,181423,2021-07-15 00:25:19,,,,2021-01-27T00:00:00.000,,,,,J1772,US,,,,Public,,public,,,,,,,,,,,,,,,,,,,,"{'type': 'Point', 'coordinates': [-73.65409, 43.355152]}",818,785,2183
ELEC,Icon Parking 155 E 29th Street - Tesla Destination,155 E 29th St,,New York,NY,10016,,212-684-8259  877-798-3752,E,,Public,24 hours daily; see valet for access,,,,,,3.0,,,Tesla Destination,{'url': 'https://www.tesla.com/destination-charging'},200-9,40.742968,-73.980565,2020-11-03T00:00:00.000,115022,2021-03-11 23:22:17,P,,,2016-05-01T00:00:00.000,,,,,J1772 TESLA,US,,,,Public,,public,,,HOTEL,,,,,,,Free,,,,,,,,,,"{'type': 'Point', 'coordinates': [-73.980565, 40.742968]}",749,739,2095
ELEC,CT ROCHESTER CTR GARAGE,655 Elmwood Ave,,Rochester,NY,14620,,888-758-4389,E,,Public,24 hours daily,,,,,,2.0,,,ChargePoint Network,{'url': 'http://www.chargepoint.com/'},GPS,43.124269,-77.621274,2021-07-15T00:00:00.000,162393,2021-07-15 00:25:19,,,,2020-06-12T00:00:00.000,,,,,J1772,US,,,,Public,,public,,,,,,,,,,,,,,,,,,,,"{'type': 'Point', 'coordinates': [-77.621274, 43.124269]}",537,1679,2093
ELEC,ProPark 29-10 Broadway - Tesla Destination,29-10 Broadway,,Astoria,NY,11106,,718-728-0460  877-798-3752,E,,Public,24 hours daily; pay lot; see valet for access,,,,,,4.0,,,Tesla Destination,{'url': 'https://www.tesla.com/destination-charging'},200-9,40.762417,-73.926985,2020-11-03T00:00:00.000,150616,2021-03-11 23:22:17,P,,,2019-09-30T00:00:00.000,,,,,TESLA,US,,,,Public,,public,,,,,,,,,,Free,,,,,,,,,,"{'type': 'Point', 'coordinates': [-73.926985, 40.762417]}",196,878,2137
ELEC,Hunt County Vineyards - Tesla Destination,4021 Italy Hill Rd,,Branchport,NY,14418,,315-595-2812  877-798-3752,E,,Public,24 hours daily; for customer use only,,,,,,5.0,,,Tesla Destination,{'url': 'https://www.tesla.com/destination-charging'},200-9,42.591377,-77.172899,2020-11-03T00:00:00.000,114886,2021-03-11 23:22:17,P,,,2018-11-01T00:00:00.000,,,,,J1772 TESLA,US,,,,Public,,public,,,BREWERY_DISTILLERY_WINERY,,,,,,,Free,,,,,,,,,,"{'type': 'Point', 'coordinates': [-77.172899, 42.591377]}",94,174,2225
ELEC,MOTM FARMINGDALE,1110  Fulton St,,Farmingdale,NY,11735,,888-758-4389,E,,Public,24 hours daily,,,,,,2.0,,,ChargePoint Network,{'url': 'http://www.chargepoint.com/'},GPS,40.72338,-73.42903,2021-07-15T00:00:00.000,165308,2021-07-15 00:25:19,,,,2020-08-19T00:00:00.000,,,,,J1772,US,,,,Public,,public,,,,,,,,,,,,,,,,,,,,"{'type': 'Point', 'coordinates': [-73.42903, 40.72338]}",1023,1115,2179
ELEC,Town of Brookhaven,1 Independence Hill,,Farmingville,NY,11738,,866-816-7584,E,,Public - Credit card at all times,"24 hours daily; also accepts PayPal, Apple Pay",A D M V,,,,,2.0,,,EV Connect,{'url': 'http://evconnect.com/'},200-9,40.843624,-73.015579,2021-02-15T00:00:00.000,184036,2021-03-08 15:41:45,LG,,,,,,,,J1772,US,,,,Public - Carte de crédit en tout temps,,public,CREDIT_CARD_ALWAYS,,MUNI_GOV,,,,,,,,,,,,,,,,,"{'type': 'Point', 'coordinates': [-73.015579, 40.843624]}",1022,1116,2179
ELEC,Country Inn & Suites - Rochester East,2851 Monroe Ave,,Rochester,NY,14618,,866-816-7584,E,,Public,24 hours daily; Also accepts Paypal,A D M V,,,,,2.0,,,EV Connect,{'url': 'http://evconnect.com/'},GPS,43.1111495,-77.5486416999999,2020-04-08T00:00:00.000,155079,2021-03-11 23:22:17,P,,,2019-08-01T00:00:00.000,,,,,J1772,US,,,,Public,,public,,,HOTEL,,,,,,,,,,,,,,,,,"{'type': 'Point', 'coordinates': [-77.5486416999999, 43.1111495]}",553,1677,2093
ELEC,Selux Corp,5 Lumen Ln,,Highland,NY,12528,,866-816-7584,E,,Public,24 hours daily,,,,,,7.0,,,EV Connect,{'url': 'http://evconnect.com/'},GPS,41.739522,-73.9603623,2020-04-08T00:00:00.000,123116,2021-03-11 23:22:17,P,,,2019-04-01T00:00:00.000,,,,,J1772,US,,,,Public,,public,,,HARDWARE_STORE,,,,,,,,,,,,,,,,,"{'type': 'Point', 'coordinates': [-73.9603623, 41.739522]}",423,972,2182
ELEC,Glen Avenue Suites,6 Glen Ave,,Cooperstown,NY,13326,,607-547-5054,E,,Public,8am-6pm daily; for guest use only,,,,,,1.0,,,Non-Networked,,GPS,42.69854,-74.93117,2020-03-03T00:00:00.000,131661,2021-03-11 23:22:17,P,,,2019-07-15T00:00:00.000,,,,,J1772,US,,,,Public,,public,,,INN,,,,,,,Free,,,,,,,,,,"{'type': 'Point', 'coordinates': [-74.93117, 42.69854]}",902,540,2136
ELEC,TownePlace Suites - Buffalo Airport,4265 Genesee St,,Buffalo,NY,14225,,716-839-1880,E,,Public,24 hours daily; two chargers for guest use only,,,,,,4.0,,,Non-Networked,,GPS,42.93057,-78.728499,2020-06-09T00:00:00.000,104733,2021-03-11 23:22:17,P,,,2018-11-01T00:00:00.000,,,,,J1772,US,,,,Public,,public,,,HOTEL,,,,,,,Free,,,,,,,,,,"{'type': 'Point', 'coordinates': [-78.728499, 42.93057]}",298,160,2041
ELEC,iPark NYC 61 Jane Street - Tesla Destination,61 Jane St,,New York,NY,10014,,855-472-7569  877-798-3752,E,,Public,24 hours daily; for customer use only; see valet for access,,,,,,3.0,,,Tesla Destination,{'url': 'https://www.tesla.com/destination-charging'},200-9,40.738222,-74.005908,2020-11-03T00:00:00.000,115173,2021-03-11 23:22:17,P,,,2016-01-01T00:00:00.000,,,,,J1772 TESLA,US,,,,Public,,public,,,PAY_GARAGE,,,,,,,Free,,,,,,,,,,"{'type': 'Point', 'coordinates': [-74.005908, 40.738222]}",749,738,2095
ELEC,Atlantic Center - Tesla Supercharger,625 Atlantic Avenue B12,,Brooklyn,NY,11217,,877-798-3752,E,,Public,24 hours daily; for Tesla use only,,,,,,,12.0,,Tesla,{'url': 'http://www.teslamotors.com/supercharger'},200-9,40.6837,-73.9743,2020-08-10T00:00:00.000,149300,2021-03-11 23:22:17,P,,,2019-09-30T00:00:00.000,,,,,TESLA,US,,,,Public,,public,,,,,,,,,,$0.28 per kWh; $0.26 per minute above 60 kW and $0.13 per minute at or below 60 kW,,,,,,,,,,"{'type': 'Point', 'coordinates': [-73.9743, 40.6837]}",894,895,2090
ELEC,Calspan Corp Flight Research Center,2041 Niagara Falls Blvd,,Niagara Falls,NY,14034,,866-816-7584,E,,Public,Office business hours; for employee and guest use only,,,,,,2.0,,,EV Connect,{'url': 'http://evconnect.com/'},200-8,43.09971,-78.939097,2020-04-08T00:00:00.000,94826,2021-03-11 23:22:17,P,,,2014-07-07T00:00:00.000,,,,,J1772,US,,,,Public,,public,,,OFFICE_BLDG,,,,,,,,,,,,,,,,,"{'type': 'Point', 'coordinates': [-78.939097, 43.09971]}",132,168,2131
ELEC,CITY AMSTERDAM EV2,117 Hewitt Street Shuttleworth Park,,Amsterdam,NY,12010,,888-758-4389,E,,Public,24 hours daily,,,,,,2.0,,,ChargePoint Network,{'url': 'http://www.chargepoint.com/'},GPS,42.960337,-74.172382,2021-07-15T00:00:00.000,186154,2021-07-15 00:25:19,,,,2021-03-13T00:00:00.000,,,,,J1772,US,,,,Public,,public,,,,,,,,,,,,,,,,,,,,"{'type': 'Point', 'coordinates': [-74.172382, 42.960337]}",497,1143,624
ELEC,DENNY’S / RED ROOF INN,100 Marginal Rd.,,Herkimer,NY,13350,,833-632-2778,E,,Public,24 hours daily,,,,,,,4.0,,Electrify America,{'url': 'https://www.electrifyamerica.com/'},GPS,43.018812,-74.991876,2021-07-15T00:00:00.000,170367,2021-07-15 01:12:37,,,,2020-12-18T00:00:00.000,,,,,CHADEMO J1772COMBO,US,,,,Public,,public,,,,,,,,,,,,,,,,,,,,"{'type': 'Point', 'coordinates': [-74.991876, 43.018812]}",679,559,2088
ELEC,CASE CENTER LOT MUSIC HALL,815 N Broadway,,Saratoga Springs,NY,12866,,888-758-4389,E,,Public,24 hours daily,,,,,,2.0,,,ChargePoint Network,{'url': 'http://www.chargepoint.com/'},GPS,43.095194,-73.782384,2021-07-15T00:00:00.000,123550,2021-07-15 00:25:19,,,,2019-06-05T00:00:00.000,,,,,J1772,US,,,,Public,,public,,,,,,,,,,,,,,,,,,,,"{'type': 'Point', 'coordinates': [-73.782384, 43.095194]}",994,147,2141
ELEC,Park Kwik - 211 Atlantic - Tesla Destination,211 Atlantic Ave,,Brooklyn,NY,11201,,877-798-3752  877-798-3752,E,,Public,24 hours daily; for customer use only; see front desk for access,,,,,,6.0,,,Tesla Destination,{'url': 'https://www.tesla.com/destination-charging'},200-9,40.689671,-73.991786,2020-11-03T00:00:00.000,169009,2021-03-11 23:22:17,P,,,2020-11-03T00:00:00.000,,,,,J1772 TESLA,US,,,,Public,,public,,,,,,,,,,Free,,,,,,,,,,"{'type': 'Point', 'coordinates': [-73.991786, 40.689671]}",894,880,2090
ELEC,ALBANY COUNTY RAIL TRAIL,839 Kenwood Ave Rail Trail,,Slingerlands,NY,12159,,888-758-4389,E,,Public,24 hours daily,,,,,,2.0,,,ChargePoint Network,{'url': 'http://www.chargepoint.com/'},GPS,42.629269,-73.863661,2021-07-15T00:00:00.000,162134,2021-07-15 00:25:19,,,,2020-06-12T00:00:00.000,,,,,J1772,US,,,,Public,,public,,,,,,,,,,,,,,,,,,,,"{'type': 'Point', 'coordinates': [-73.863661, 42.629269]}",837,1406,2030
ELEC,KEELER STATION 03,1111 Troy Schenectady Rd,,Latham,NY,12110,,888-758-4389,E,,Public,24 hours daily,,,,,,2.0,,,ChargePoint Network,{'url': 'http://www.chargepoint.com/'},GPS,42.767352,-73.812499,2021-07-15T00:00:00.000,190453,2021-07-15 00:25:19,,,,2021-05-31T00:00:00.000,,,,,J1772,US,,,,Public,,public,,,,,,,,,,,,,,,,,,,,"{'type': 'Point', 'coordinates': [-73.812499, 42.767352]}",834,1288,2030
ELEC,Icon Parking 237 West Thames - Tesla Destination,237 W Thames,,New York,NY,10280,,212-786-4796  877-798-3752,E,,Public,24 hours daily; see valet for access,,,,,,3.0,,,Tesla Destination,{'url': 'https://www.tesla.com/destination-charging'},200-8,40.708465,-74.016762,2020-11-03T00:00:00.000,115062,2021-03-11 23:22:17,P,,,2018-11-01T00:00:00.000,,,,,J1772 TESLA,US,,,,Public,,public,,,PAY_GARAGE,,,,,,,Free,,,,,,,,,,"{'type': 'Point', 'coordinates': [-74.016762, 40.708465]}",749,602,2095
ELEC,The Clinton Exchange - Tesla Destination,4 Clinton Square,,Syracuse,NY,13202,,877-798-3752  877-798-3752,E,,Public,24 hours daily; for customer use only; see front desk for access,,,,,,1.0,,,Tesla Destination,{'url': 'https://www.tesla.com/destination-charging'},200-8,43.050899,-76.153729,2020-11-03T00:00:00.000,169169,2021-03-11 23:22:17,P,,,2020-11-03T00:00:00.000,,,,,TESLA,US,,,,Public,,public,,,,,,,,,,Free,,,,,,,,,,"{'type': 'Point', 'coordinates': [-76.153729, 43.050899]}",687,711,2132
ELEC,NYC FLEET DPRWFMARNA_1_L3,109-5 Marina Rd,,Corona,NY,11368,,888-758-4389,E,,Public,24 hours daily,,,,,,,1.0,,ChargePoint Network,{'url': 'http://www.chargepoint.com/'},GPS,40.760609,-73.857002,2021-07-15T00:00:00.000,187658,2021-07-15 00:25:19,,,,2021-04-16T00:00:00.000,,,,,CHADEMO J1772COMBO,US,,,,Public,,public,,,,,,,,,,,,,,,,,,,,"{'type': 'Point', 'coordinates': [-73.857002, 40.760609]}",196,838,2137
ELEC,NYC FLEET DPROCBRZAC_1_L3,625 Father Capodanno Blvd,,South Beach,NY,10305,,888-758-4389,E,,Public,24 hours daily,,,,,,,1.0,,ChargePoint Network,{'url': 'http://www.chargepoint.com/'},GPS,40.58297,-74.07527,2021-07-15T00:00:00.000,184949,2021-07-15 00:25:19,,,,2021-02-13T00:00:00.000,,,,,CHADEMO J1772COMBO,US,,,,Public,,public,,,,,,,,,,,,,,,,,,,,"{'type': 'Point', 'coordinates': [-74.07527, 40.58297]}",585,608,
ELEC,Village of Canastota,205 S Peterboro St,,Canastota,NY,13032,,315-697-7559,E,,Public,24 hours daily,,,,,,2.0,,,Non-Networked,,GPS,43.077499,-75.752256,2021-05-06T00:00:00.000,187159,2021-05-06 13:19:19,P,,,2021-03-22T00:00:00.000,,,,,J1772,US,,,,Public,,public,,,PARKING_LOT,,,,,,,,,,,,,,,,,"{'type': 'Point', 'coordinates': [-75.752256, 43.077499]}",136,351,2092
ELEC,CenterPark 4172 Broadway - Tesla Destination,4172 Broadway Ave,,Washington Heights,NY,10033,,212-543-2700  877-798-3752,E,,Public,24 hours daily; pay lot; see valet for access,,,,,,4.0,,,Tesla Destination,{'url': 'https://www.tesla.com/destination-charging'},200-8,40.847482,-73.937862,2020-11-03T00:00:00.000,150571,2021-03-11 23:22:17,P,,,2019-09-30T00:00:00.000,,,,,TESLA,US,,,,Public,,public,,,,,,,,,,Free,,,,,,,,,,"{'type': 'Point', 'coordinates': [-73.937862, 40.847482]}",749,792,2095
ELEC,ELECTRIC DOG DELMAR VET 1,910 Delaware Ave,,Delmar,NY,12054,,888-758-4389,E,,Public,24 hours daily,,,,,,2.0,,,ChargePoint Network,{'url': 'http://www.chargepoint.com/'},GPS,42.6074,-73.872826,2021-07-15T00:00:00.000,144998,2021-07-15 00:25:19,,,,2019-09-06T00:00:00.000,,,,,J1772,US,,,,Public,,public,,,,,,,,,,,,,,,,,,,,"{'type': 'Point', 'coordinates': [-73.872826, 42.6074]}",837,1180,2030
ELEC,TATABROOKFIELD #2,11 E Loop Rd,,New York,NY,10044,,888-758-4389,E,,Public,24 hours daily,,,,,,1.0,,,ChargePoint Network,{'url': 'http://www.chargepoint.com/'},GPS,40.755077,-73.955605,2021-07-15T00:00:00.000,174179,2021-07-15 00:25:19,,,,2021-01-27T00:00:00.000,,,,,J1772,US,,,,Public,,public,,,,,,,,,,,,,,,,,,,,"{'type': 'Point', 'coordinates': [-73.955605, 40.755077]}",749,800,2095
ELEC,New York Hilton Midtown - Tesla Destination,1335 Avenue of the Americas,,New York,NY,10019,,212-586-7000  877-798-3752,E,,Public,24 hours daily; for customer use only; see valet for access,,,,,,4.0,,,Tesla Destination,{'url': 'https://www.tesla.com/destination-charging'},200-9,40.762445,-73.97971,2020-11-03T00:00:00.000,115011,2021-03-11 23:22:17,P,,,2018-11-01T00:00:00.000,,,,,J1772 TESLA,US,,,,Public,,public,,,HOTEL,,,,,,,Free,,,,,,,,,,"{'type': 'Point', 'coordinates': [-73.97971, 40.762445]}",749,742,2095
ELEC,Liberty Street,105 Jay St,,Schenectady,NY,12305,,518-691-3119,E,,Public,24 hours daily,,,,,,10.0,,,LIVINGSTON,{'url': 'https://www.solution.energy/evse/'},GPS,42.814249,-73.938485,2021-06-07T00:00:00.000,189523,2021-06-07 17:37:37,P,,,2021-01-21T00:00:00.000,,,,,J1772,US,,,,Public,,public,,,MUNI_GOV,,,,,,,,,,,,,,,,NONE,"{'type': 'Point', 'coordinates': [-73.938485, 42.814249]}",104,74,2142
ELEC,Prettejohn Public Parking Lot,17 Commercial St,Located behind the Livonia Inn,Livonia,NY,14487,,585-346-2010,E,,Public,24 hours daily,,,,,,2.0,,,Non-Networked,,GPS,42.821089,-77.668047,2020-06-09T00:00:00.000,87725,2021-03-11 23:22:17,LG,,,2017-09-13T00:00:00.000,,,,,J1772,US,,,,Public,,public,,,PARKING_LOT,,,,,,,Free,,,,,,,,,,"{'type': 'Point', 'coordinates': [-77.668047, 42.821089]}",741,314,2091
ELEC,388 GREENWICH EV 01,388 Greenwich St,,New York,NY,10013,,888-758-4389,E,,Public,24 hours daily,,,,,,2.0,,,ChargePoint Network,{'url': 'http://www.chargepoint.com/'},GPS,40.720654,-74.011216,2021-07-15T00:00:00.000,189385,2021-07-15 00:25:19,,,,2021-05-08T00:00:00.000,,,,,J1772,US,,,,Public,,public,,,,,,,,,,,,,,,,,,,,"{'type': 'Point', 'coordinates': [-74.011216, 40.720654]}",749,737,2095
ELEC,BA #1 40BRITISH AMER,40 British American Blvd,,Latham,NY,12110,,888-758-4389,E,,Public,24 hours daily,,,,,,2.0,,,ChargePoint Network,{'url': 'http://www.chargepoint.com/'},GPS,42.768475,-73.82226,2021-07-15T00:00:00.000,143441,2021-07-15 00:25:19,,,,2019-08-15T00:00:00.000,,,,,J1772,US,,,,Public,,public,,,,,,,,,,,,,,,,,,,,"{'type': 'Point', 'coordinates': [-73.82226, 42.768475]}",834,1288,2030
CNG,Clean Energy - Greenpoint - National Grid,287 Maspeth Ave,"I-278/Brooklyn Queens Expy, exit onto Vandervoort Ave S, left onto Maspeth Ave, and the station is on the left",Brooklyn,NY,11211,,866-809-4869,E,,Public - Credit card at all times,24 hours daily; call 866-809-4869 for Clean Energy card,CleanEnergy D FuelMan M V Voyager Wright_Exp,,Q,3000 3600,,,,,,,200-8,40.718037,-73.932309,2021-05-06T00:00:00.000,108,2021-05-06 13:19:19,T,,,2016-07-15T00:00:00.000,,HD,,,,US,,,,Public - Carte de crédit en tout temps,,public,CREDIT_CARD_ALWAYS,,UTILITY,1.0,NONE,1200.0,,,,,,,,,Q,3000 3600,HD,,,"{'type': 'Point', 'coordinates': [-73.932309, 40.718037]}",894,889,2090
ELEC,ECONOLODGE ECONOLODGE 1.1,237 W Main St,,Malone,NY,12953,,888-758-4389,E,,Public,24 hours daily,,,,,,2.0,,,ChargePoint Network,{'url': 'http://www.chargepoint.com/'},GPS,44.848682,-74.30688,2021-07-15T00:00:00.000,154172,2021-07-15 00:25:19,,,,2020-02-29T00:00:00.000,,,,,J1772,US,,,,Public,,public,,,,,,,,,,,,,,,,,,,,"{'type': 'Point', 'coordinates': [-74.30688, 44.848682]}",182,278,621
ELEC,COMFORT- CHARGE WINGATE 1.3,4054 ny-9l,,Lake George,NY,12845,,888-758-4389,E,,Public,24 hours daily,,,,,,2.0,,,ChargePoint Network,{'url': 'http://www.chargepoint.com/'},GPS,43.41169,-73.708435,2021-07-15T00:00:00.000,182158,2021-07-15 00:25:19,,,,2021-01-27T00:00:00.000,,,,,J1772,US,,,,Public,,public,,,,,,,,,,,,,,,,,,,,"{'type': 'Point', 'coordinates': [-73.708435, 43.41169]}",820,128,2183
ELEC,"Country Inn & Suites by Radisson, Lake George - Tesla Destination",1130 U.S. 9,,Queensbury,NY,12804,,518-745-0180  877-798-3752,E,,Public,24 hours daily; for customer use only; see front desk for access,,,,,,4.0,,,Tesla Destination,{'url': 'https://www.tesla.com/destination-charging'},200-9,43.348226,-73.690167,2020-11-03T00:00:00.000,122495,2021-03-11 23:22:17,P,,,2019-03-01T00:00:00.000,,,,,J1772 TESLA,US,,,,Public,,public,,,,,,,,,,Free,,,,,,,,,,"{'type': 'Point', 'coordinates': [-73.690167, 43.348226]}",818,785,2183
ELEC,Apple Parking 332 W 11th Street - Tesla Destination,332 W 11th St,,New York,NY,10014,,212-741-9079  877-798-3752,E,,Public - Call ahead,24 hours daily,,,,,,3.0,,,Tesla Destination,{'url': 'https://www.tesla.com/destination-charging'},200-9,40.735404,-74.007717,2020-11-03T00:00:00.000,115100,2021-03-11 23:22:17,P,,,2017-03-01T00:00:00.000,,,,,TESLA,US,,,,Public - Appeler à l'avance,,public,CALL,,PAY_GARAGE,,,,,,,Free,,,,,,,,,,"{'type': 'Point', 'coordinates': [-74.007717, 40.735404]}",749,738,2095
ELEC,Hampton Inn Potsdam - Tesla Destination,169 Market St,,Potsdam,NY,13676,,315-265-0100  877-798-3752,E,,Public,24 hours daily; for customer use only; see front desk for access,,,,,,3.0,,,Tesla Destination,{'url': 'https://www.tesla.com/destination-charging'},200-9,44.682982,-74.987514,2020-11-03T00:00:00.000,115213,2021-03-11 23:22:17,P,,,2018-11-01T00:00:00.000,,,,,J1772 TESLA,US,,,,Public,,public,,,HOTEL,,,,,,,Free,,,,,,,,,,"{'type': 'Point', 'coordinates': [-74.987514, 44.682982]}",312,1597,2140
ELEC,STATION 4TH FL MOTORGATE #2,Main St/10 River Rd,,New York,NY,10044,,888-758-4389,E,,Public,24 hours daily,,,,,,2.0,,,ChargePoint Network,{'url': 'http://www.chargepoint.com/'},GPS,40.764208,-73.947198,2021-07-15T00:00:00.000,168525,2021-07-15 00:25:19,,,,2020-11-17T00:00:00.000,,,,,J1772,US,,,,Public,,public,,,,,,,,,,,,,,,,,,,,"{'type': 'Point', 'coordinates': [-73.947198, 40.764208]}",749,800,2095
ELEC,Dunkin’,405 W Main St,,Batavia,NY,14020,,585-483-1454,E,,Public,24 hours daily,,,,,,1.0,,,Non-Networked,,GPS,43.004421,-78.203921,2020-06-09T00:00:00.000,157965,2021-03-11 23:22:17,P,,,2020-05-15T00:00:00.000,,,,,J1772,US,,,,Public,,public,,,RESTAURANT,,,,,,,,,,,,,,,,,"{'type': 'Point', 'coordinates': [-78.203921, 43.004421]}",793,489,2086
ELEC,BURNS MGT EXCELSIOR 2,2125 Whistler Ct,,Saratoga Springs,NY,12866,,888-758-4389,E,,Public,24 hours daily,,,,,,2.0,,,ChargePoint Network,{'url': 'http://www.chargepoint.com/'},GPS,43.093545,-73.755342,2021-07-15T00:00:00.000,173902,2021-07-15 00:25:19,,,,2021-01-27T00:00:00.000,,,,,J1772,US,,,,Public,,public,,,,,,,,,,,,,,,,,,,,"{'type': 'Point', 'coordinates': [-73.755342, 43.093545]}",994,147,2141
ELEC,MASTERCARD INT STATIION1,2000 Purchase St,,Harrison,NY,10577,,888-758-4389,E,,Public,24 hours daily,,,,,,2.0,,,ChargePoint Network,{'url': 'http://www.chargepoint.com/'},GPS,41.024449,-73.714434,2021-07-15T00:00:00.000,173807,2021-07-15 00:25:19,,,,2021-01-27T00:00:00.000,,,,,J1772,US,,,,Public,,public,,,,,,,,,,,,,,,,,,,,"{'type': 'Point', 'coordinates': [-73.714434, 41.024449]}",973,1339,2185
ELEC,Treiber Nissan,320 N Comrie Ave,,Johnstown,NY,12095,,518-736-1300,E,,Public - Call ahead,Dealership business hours,,,,,,1.0,,,Non-Networked,,200-9,43.025044,-74.358103,2020-06-09T00:00:00.000,44344,2021-03-11 23:22:17,P,,,2011-11-30T00:00:00.000,,,,,J1772,US,,,,Public - Appeler à l'avance,,public,CALL,,CAR_DEALER,,,,,,,Free,,,,,,,,,,"{'type': 'Point', 'coordinates': [-74.358103, 43.025044]}",384,1238,2085
ELEC,BLUE HILL PLAZA STATION 1,1 Blue Hill Plaza,,Pearl River,NY,10965,,888-758-4389,E,,Public,24 hours daily,,,,,,2.0,,,ChargePoint Network,{'url': 'http://www.chargepoint.com/'},GPS,41.0477,-74.006621,2021-07-15T00:00:00.000,162382,2021-07-15 00:25:19,,,,2020-06-12T00:00:00.000,,,,,J1772,US,,,,Public,,public,,,,,,,,,,,,,,,,,,,,"{'type': 'Point', 'coordinates': [-74.006621, 41.0477]}",530,1552,628
ELEC,ROSEWOOD PLAZA STATION 3,New Karner Rd & Watervliet Shaker Rd,,Albany,NY,12205,,888-758-4389,E,,Public,24 hours daily,,,,,,2.0,,,ChargePoint Network,{'url': 'http://www.chargepoint.com/'},GPS,42.742672,-73.83933,2021-07-15T00:00:00.000,181718,2021-07-15 00:25:19,,,,2021-01-27T00:00:00.000,,,,,J1772,US,,,,Public,,public,,,,,,,,,,,,,,,,,,,,"{'type': 'Point', 'coordinates': [-73.83933, 42.742672]}",834,42,2030
ELEC,NATIONAL GRID BONNER HALL.,Putnam Way,,Buffalo,NY,14228,,888-758-4389,E,,Public,24 hours daily,,,,,,2.0,,,ChargePoint Network,{'url': 'http://www.chargepoint.com/'},GPS,43.001813,-78.788469,2021-07-15T00:00:00.000,162387,2021-07-15 00:25:19,,,,2020-06-12T00:00:00.000,,,,,J1772,US,,,,Public,,public,,,,,,,,,,,,,,,,,,,,"{'type': 'Point', 'coordinates': [-78.788469, 43.001813]}",304,163,2041
ELEC,2702 Queens Plaza South - Tesla Destination,2702 Queens Plaza S,,Long Island City,NY,11101,,718-864-2992  877-798-3752,E,,Public,24 hours daily; pay lot; see valet for access,,,,,,6.0,,,Tesla Destination,{'url': 'https://www.tesla.com/destination-charging'},200-9,40.749893,-73.939758,2020-11-03T00:00:00.000,150653,2021-03-11 23:22:17,P,,,2019-09-30T00:00:00.000,,,,,TESLA,US,,,,Public,,public,,,,,,,,,,Free,,,,,,,,,,"{'type': 'Point', 'coordinates': [-73.939758, 40.749893]}",196,873,2137
ELEC,Prime Parking Systems - 155 E 68th Street - Tesla Destination,155 E 68th St,,New York,NY,10065,,212-327-2626  877-798-3752,E,,Public,24 hours daily; for customer use only; see valet for access,,,,,,3.0,,,Tesla Destination,{'url': 'https://www.tesla.com/destination-charging'},200-8,40.768032,-73.963983,2020-11-03T00:00:00.000,115024,2021-03-11 23:22:17,P,,,2016-01-01T00:00:00.000,,,,,J1772 TESLA,US,,,,Public,,public,,,PAY_GARAGE,,,,,,,Free,,,,,,,,,,"{'type': 'Point', 'coordinates': [-73.963983, 40.768032]}",749,,2095
ELEC,Quik Park Armory Parking Inc. - Tesla Destination,172 Vanderbilt,,Brooklyn,NY,11205,,718-222-9427  877-798-3752,E,,Public,24 hours daily; see valet for access,,,,,,2.0,,,Tesla Destination,{'url': 'https://www.tesla.com/destination-charging'},200-8,40.692372,-73.969893,2020-11-03T00:00:00.000,114891,2021-03-11 23:22:17,P,,,2017-03-01T00:00:00.000,,,,,TESLA,US,,,,Public,,public,,,PAY_GARAGE,,,,,,,Free,,,,,,,,,,"{'type': 'Point', 'coordinates': [-73.969893, 40.692372]}",894,883,2090
ELEC,PICOTTE 22 CORPORATE 2,22 Corporate Woods Blvd,,Albany,NY,12211,,888-758-4389,E,,Public,24 hours daily,,,,,,2.0,,,ChargePoint Network,{'url': 'http://www.chargepoint.com/'},GPS,42.681545,-73.768265,2021-07-15T00:00:00.000,181108,2021-07-15 00:25:19,,,,2021-01-27T00:00:00.000,,,,,J1772,US,,,,Public,,public,,,,,,,,,,,,,,,,,,,,"{'type': 'Point', 'coordinates': [-73.768265, 42.681545]}",834,48,2030
ELEC,LARKIN726RRAMPP EV ONLY 2,726 Exchange St,,Buffalo,NY,14210,,888-758-4389,E,,Public,Mon 5:00pm - 10:00pm; Tue 5:00pm - 10:00pm; Wed 5:00pm - 10:00pm; Thu 5:00pm - 10:00pm; Fri 5:00pm - 10:00pm; Sat 8:00am - 10:00pm; Sun 8:00am - 10:00pm,,,,,,2.0,,,ChargePoint Network,{'url': 'http://www.chargepoint.com/'},GPS,42.8749,-78.849874,2021-07-15T00:00:00.000,182982,2021-07-15 00:25:19,,,,2021-01-27T00:00:00.000,,,,,J1772,US,,,,Public,,public,,,,,,,,,,,,,,,,,,,,"{'type': 'Point', 'coordinates': [-78.849874, 42.8749]}",300,66,2041
ELEC,RTS BAYTOWNE 2,Baytowne Plaza 1900 Empire Blvd,,Webster,NY,14580,,888-758-4389,E,,Public,24 hours daily,,,,,,2.0,,,ChargePoint Network,{'url': 'http://www.chargepoint.com/'},GPS,43.19229,-77.49904,2021-07-15T00:00:00.000,169289,2021-07-15 00:25:19,,,,2020-11-18T00:00:00.000,,,,,J1772,US,,,,Public,,public,,,,,,,,,,,,,,,,,,,,"{'type': 'Point', 'coordinates': [-77.49904, 43.19229]}",541,418,2093
ELEC,TONAWANDA YPR POOL PLAZA 3,157 Thorncliff Rd,,Buffalo,NY,14223,,888-758-4389,E,,Public,24 hours daily,,,,,,2.0,,,ChargePoint Network,{'url': 'http://www.chargepoint.com/'},GPS,42.98275,-78.86671,2021-07-15T00:00:00.000,154519,2021-07-15 00:25:19,,,,2020-03-17T00:00:00.000,,,,,J1772,US,,,,Public,,public,,,,,,,,,,,,,,,,,,,,"{'type': 'Point', 'coordinates': [-78.86671, 42.98275]}",278,158,2041
ELEC,RTC WALSH 3,1 Walsh Cir,,Syracuse,NY,13208,,888-758-4389,E,,Public,24 hours daily,,,,,,2.0,,,ChargePoint Network,{'url': 'http://www.chargepoint.com/'},GPS,43.07584,-76.16968,2021-07-15T00:00:00.000,174949,2021-07-15 00:25:19,,,,2021-01-27T00:00:00.000,,,,,J1772,US,,,,Public,,public,,,,,,,,,,,,,,,,,,,,"{'type': 'Point', 'coordinates': [-76.16968, 43.07584]}",687,726,2132
ELEC,QUEENSBURY TOWN EXIT 18 KIOSK 1,105 Main St,,Queensbury,NY,12804,,888-758-4389,E,,Public,24 hours daily,,,,,,2.0,,,ChargePoint Network,{'url': 'http://www.chargepoint.com/'},GPS,43.298553,-73.67698,2021-07-15T00:00:00.000,165629,2021-07-15 00:25:19,,,,2020-08-28T00:00:00.000,,,,,J1772,US,,,,Public,,public,,,,,,,,,,,,,,,,,,,,"{'type': 'Point', 'coordinates': [-73.67698, 43.298553]}",818,785,2183
ELEC,Town of Lloyd Municipal Parking Lot - Tesla Destination,39 Main St,,Highland,NY,12528,,845-691-2144  877-798-3752,E,,Public,24 hours daily,,,,,,4.0,,,Tesla Destination,{'url': 'https://www.tesla.com/destination-charging'},200-8,41.720133,-73.964807,2020-11-03T00:00:00.000,114950,2021-03-11 23:22:17,P,,,2018-11-01T00:00:00.000,,,,,J1772 TESLA,US,,,,Public,,public,,,MUNI_GOV,,,,,,,Free,,,,,,,,,,"{'type': 'Point', 'coordinates': [-73.964807, 41.720133]}",423,972,2182
ELEC,HENRIETTA LIBRARY 1,625 Calkins Rd,,Rochester,NY,14623,,888-758-4389,E,,Public,24 hours daily,,,,,,2.0,,,ChargePoint Network,{'url': 'http://www.chargepoint.com/'},GPS,43.067992,-77.617545,2021-07-15T00:00:00.000,145651,2021-07-15 00:25:19,,,,2019-09-28T00:00:00.000,,,,,J1772,US,,,,Public,,public,,,,,,,,,,,,,,,,,,,,"{'type': 'Point', 'coordinates': [-77.617545, 43.067992]}",546,237,2093
ELEC,East 149th Street Municipal Parking Garage,315 E 149th St,,Bronx,NY,10451,,718-292-4523  866-816-7584,E,,Public,24 hours daily,,,,,,3.0,,,EV Connect,{'url': 'http://evconnect.com/'},200-9,40.817326,-73.920914,2020-04-08T00:00:00.000,65291,2021-03-11 23:22:17,LG,,,2015-06-01T00:00:00.000,,,,,J1772,US,,,,Public,,public,,,PARKING_LOT,,,,,,,Free,,,,,,,,,,"{'type': 'Point', 'coordinates': [-73.920914, 40.817326]}",307,647,2032
ELEC,ERIE COUNTY ELLIOTT CREEK,12 Calvert Blvd,,Tonawanda,NY,14150,,888-758-4389,E,,Public,24 hours daily,,,,,,2.0,,,ChargePoint Network,{'url': 'http://www.chargepoint.com/'},GPS,43.02254,-78.82616,2021-07-15T00:00:00.000,154777,2021-07-15 00:25:19,,,,2020-03-27T00:00:00.000,,,,,J1772,US,,,,Public,,public,,,,,,,,,,,,,,,,,,,,"{'type': 'Point', 'coordinates': [-78.82616, 43.02254]}",278,8,2041
ELEC,iPark NYC 250 West Parking - Tesla Destination,250  W 19th St,,New York,NY,10011,,212-627-1704  877-798-3752,E,,Public,24 hours daily; for customer use only; see valet for access,,,,,,3.0,,,Tesla Destination,{'url': 'https://www.tesla.com/destination-charging'},200-8,40.742179,-73.999226,2020-11-03T00:00:00.000,115068,2021-03-11 23:22:17,P,,,2015-03-01T00:00:00.000,,,,,J1772 TESLA,US,,,,Public,,public,,,PAY_GARAGE,,,,,,,Free,,,,,,,,,,"{'type': 'Point', 'coordinates': [-73.999226, 40.742179]}",749,735,2095
ELEC,500 PEARL 500 PEARL,500 Pearl street,,Buffalo,NY,14202,,888-758-4389,E,,Public,24 hours daily,,,,,,2.0,,,ChargePoint Network,{'url': 'http://www.chargepoint.com/'},GPS,42.893581,-78.873877,2021-07-15T00:00:00.000,153301,2021-07-15 00:25:19,,,,2020-02-05T00:00:00.000,,,,,J1772,US,,,,Public,,public,,,,,,,,,,,,,,,,,,,,"{'type': 'Point', 'coordinates': [-78.873877, 42.893581]}",300,33,2041
ELEC,CITY AMSTERDAM BRIDGE ST EV 3,55 Bridge St Bridge Street Parking Lot,,Amsterdam,NY,12010,,888-758-4389,E,,Public,24 hours daily,,,,,,2.0,,,ChargePoint Network,{'url': 'http://www.chargepoint.com/'},GPS,42.934486,-74.197391,2021-07-15T00:00:00.000,181934,2021-07-15 00:25:19,,,,2021-01-27T00:00:00.000,,,,,J1772,US,,,,Public,,public,,,,,,,,,,,,,,,,,,,,"{'type': 'Point', 'coordinates': [-74.197391, 42.934486]}",497,1143,624
ELEC,BVI-1 #1,7 Barnhart Rd,,Livingston Manor,NY,12758,,888-758-4389,E,,Public,24 hours daily,,,,,,2.0,,,ChargePoint Network,{'url': 'http://www.chargepoint.com/'},GPS,42.022484,-74.752134,2021-07-15T00:00:00.000,187923,2021-07-15 00:25:19,,,,2021-04-24T00:00:00.000,,,,,J1772,US,,,,Public,,public,,,,,,,,,,,,,,,,,,,,"{'type': 'Point', 'coordinates': [-74.752134, 42.022484]}",434,1063,2182
ELEC,GGMC Parking 415 E 79th - Tesla Destination,415 E 79th St,,New York,NY,10075,,212-650-1275  877-798-3752,E,,Public,24 hours daily; see valet for access,,,,,,3.0,,,Tesla Destination,{'url': 'https://www.tesla.com/destination-charging'},200-8,40.772197,-73.95183,2020-11-03T00:00:00.000,115127,2021-03-11 23:22:17,P,,,2017-03-01T00:00:00.000,,,,,J1772 TESLA,US,,,,Public,,public,,,PAY_GARAGE,,,,,,,Free,,,,,,,,,,"{'type': 'Point', 'coordinates': [-73.95183, 40.772197]}",749,,2095
ELEC,MTP Parking 568 Union Ave - Tesla Destination,568 Union Ave,,Brooklyn,NY,11211,,718-218-6688  877-798-3752,E,,Public,24 hours daily; pay lot; see valet for access,,,,,,4.0,,,Tesla Destination,{'url': 'https://www.tesla.com/destination-charging'},200-9,40.717801,-73.951805,2020-11-03T00:00:00.000,122477,2021-03-11 23:22:17,P,,,2019-03-01T00:00:00.000,,,,,TESLA,US,,,,Public,,public,,,,,,,,,,Free,,,,,,,,,,"{'type': 'Point', 'coordinates': [-73.951805, 40.717801]}",894,889,2090
ELEC,SUNY BUFFALO JACOBS 3,50 Augspurger Rd,,Buffalo,NY,14228,,888-758-4389,E,,Public,24 hours daily,,,,,,2.0,,,ChargePoint Network,{'url': 'http://www.chargepoint.com/'},GPS,42.99886,-78.78732,2021-07-15T00:00:00.000,171344,2021-07-15 00:25:19,,,,2021-01-16T00:00:00.000,,,,,J1772,US,,,,Public,,public,,,,,,,,,,,,,,,,,,,,"{'type': 'Point', 'coordinates': [-78.78732, 42.99886]}",304,163,2041
ELEC,PANYNJ JFK Y GARAGE 4,JFK Terminal 5 JFK International Airport,,Queens,NY,11430,,888-758-4389,E,,Public,24 hours daily,,,,,,2.0,,,ChargePoint Network,{'url': 'http://www.chargepoint.com/'},GPS,40.645841,-73.779222,2021-07-15T00:00:00.000,147470,2021-07-15 00:25:19,,,,2019-11-02T00:00:00.000,,,,,J1772,US,,,,Public,,public,,,,,,,,,,,,,,,,,,,,"{'type': 'Point', 'coordinates': [-73.779222, 40.645841]}",196,1215,2137
ELEC,HOLTSVILLE WEST,12-40 Corporate Dr,,Holtsville,NY,11742,,888-758-4389,E,,Public,24 hours daily,,,,,,2.0,,,ChargePoint Network,{'url': 'http://www.chargepoint.com/'},GPS,40.804305,-73.038898,2021-07-15T00:00:00.000,180171,2021-07-15 00:25:19,,,,2021-01-27T00:00:00.000,,,,,J1772,US,,,,Public,,public,,,,,,,,,,,,,,,,,,,,"{'type': 'Point', 'coordinates': [-73.038898, 40.804305]}",1022,1226,2179
ELEC,TOWN GLENVILLE SENIOR CTR EV2,Glenville Senior Center 32 Worden Rd,,Glenville,NY,12302,,888-758-4389,E,,Public,24 hours daily,,,,,,2.0,,,ChargePoint Network,{'url': 'http://www.chargepoint.com/'},GPS,42.851714,-73.946755,2021-07-15T00:00:00.000,175627,2021-07-15 00:25:19,,,,2021-01-27T00:00:00.000,,,,,J1772,US,,,,Public,,public,,,,,,,,,,,,,,,,,,,,"{'type': 'Point', 'coordinates': [-73.946755, 42.851714]}",108,50,2142
ELEC,O. C. BMW STATION 01,101 Maher Ln,,Harriman,NY,10926,,888-758-4389,E,,Public,24 hours daily,,,,,,2.0,,,ChargePoint Network,{'url': 'http://www.chargepoint.com/'},GPS,41.314906,-74.139157,2021-07-15T00:00:00.000,162442,2021-07-15 00:25:19,,,,2020-06-12T00:00:00.000,,,,,J1772,US,,,,Public,,public,,,,,,,,,,,,,,,,,,,,"{'type': 'Point', 'coordinates': [-74.139157, 41.314906]}",883,1506,2134
ELEC,NATIONAL GRID TOPS WATERTOWN,22050 US-11,,Watertown,NY,13601,,888-758-4389,E,,Public,24 hours daily,,,,,,2.0,,,ChargePoint Network,{'url': 'http://www.chargepoint.com/'},GPS,43.99481,-75.90173,2021-07-15T00:00:00.000,162231,2021-07-15 00:25:19,,,,2020-06-12T00:00:00.000,,,,,J1772,US,,,,Public,,public,,,,,,,,,,,,,,,,,,,,"{'type': 'Point', 'coordinates': [-75.90173, 43.99481]}",846,1466,2089
LPG,U-Haul,2560 South Rd,,Poughkeepsie,NY,12601,,845-462-1027,E,,Public,"7am-7pm M-Th and Sat, 7am-8pm F, 9am-5pm Sun",A Cash Checks D M V,,,,,,,,,,200-9,41.663631,-73.928773,2021-06-07T00:00:00.000,53161,2021-06-07 17:37:37,P,,,2013-10-16T00:00:00.000,,,False,,,US,,,,Public,,public,,,RENTAL_CAR_RETURN,,,,,,,,,"QUICK_CONNECT"", ""ACME",,,,,,,,"{'type': 'Point', 'coordinates': [-73.928773, 41.663631]}",587,1021,2040
ELEC,WFM - NORTHEAST WHOLE FOODS 1,214 3rd St,,Gowanus,NY,11215,,888-758-4389,E,,Public,24 hours daily,,,,,,2.0,,,ChargePoint Network,{'url': 'http://www.chargepoint.com/'},GPS,40.674844,-73.989457,2021-07-15T00:00:00.000,175344,2021-07-15 00:25:19,,,,2021-01-27T00:00:00.000,,,,,J1772,US,,,,Public,,public,,,,,,,,,,,,,,,,,,,,"{'type': 'Point', 'coordinates': [-73.989457, 40.674844]}",894,893,2090
ELEC,Baron's Cove - Tesla Destination,31 W Water St,,Sag Harbor,NY,11963,,631-725-2100  877-798-3752,E,,Public,24 hours daily; for customer use only; see front desk for access,,,,,,1.0,,,Tesla Destination,{'url': 'https://www.tesla.com/destination-charging'},200-9,41.000092,-72.30043,2020-11-03T00:00:00.000,115232,2021-03-11 23:22:17,P,,,2016-08-15T00:00:00.000,,,,,TESLA,US,,,,Public,,public,,,OTHER_ENTERTAINMENT,,,,,,,Free,,,,,,,,,,"{'type': 'Point', 'coordinates': [-72.30043, 41.000092]}",1013,1646,2179
ELEC,Gallagher Ramp,499 Elmwood Ave,,Buffalo,NY,14222,,716-849-5812  866-816-7584,E,,Public - Credit card at all times,24 hours daily; must use EVConnect app for payment,A D Debit M V,,,,,1.0,,,EV Connect,{'url': 'http://evconnect.com/'},GPS,42.910491,-78.876035,2020-06-09T00:00:00.000,120916,2021-04-21 14:39:46,LG,,,2018-04-01T00:00:00.000,,,,,J1772,US,,,,Public - Carte de crédit en tout temps,,public,CREDIT_CARD_ALWAYS,,PARKING_GARAGE,,,,,,,$0.10 per kWh,,,,,,,,,,"{'type': 'Point', 'coordinates': [-78.876035, 42.910491]}",300,111,2041
ELEC,Nannen Arboretum,28 Parkside Dr,,Ellicottville,NY,14731,,716-699-5046,E,,Public,24 hours daily,,,,,,2.0,,,Non-Networked,,GPS,42.283144,-78.669294,2020-06-09T00:00:00.000,157960,2021-03-11 23:22:17,P,,,2020-05-15T00:00:00.000,,,,,J1772,US,,,,Public,,public,,,PARK,,,,,,,,,,,,,,,,,"{'type': 'Point', 'coordinates': [-78.669294, 42.283144]}",364,1710,2034
ELEC,BROADSTCW ADK CAR WASH 1,203 Broad St,,Glens Falls,NY,12801,,888-758-4389,E,,Public,24 hours daily,,,,,,2.0,,,ChargePoint Network,{'url': 'http://www.chargepoint.com/'},GPS,43.303116,-73.66215,2021-07-15T00:00:00.000,170005,2021-07-15 00:25:19,,,,2020-12-09T00:00:00.000,,,,,J1772,US,,,,Public,,public,,,,,,,,,,,,,,,,,,,,"{'type': 'Point', 'coordinates': [-73.66215, 43.303116]}",824,783,2183
ELEC,Rochester Institute of Technology - Lot M,1 Lomb Memorial Dr,,Rochester,NY,14623,,585-475-2074,E,,Public,24 hours daily; parking pass required,,,,,,2.0,,,Non-Networked,,200-9,43.08779,-77.674413,2021-05-06T00:00:00.000,75944,2021-05-06 13:19:19,P,,,2016-01-01T00:00:00.000,,,,,J1772,US,,,,Public,,public,,,COLLEGE_CAMPUS,,,,,,,Free,,,,,,,,,,"{'type': 'Point', 'coordinates': [-77.674413, 43.08779]}",546,1682,2093
ELEC,Residence Inn,6420 Yorktown Cir,,Syracuse,NY,13057,,866-816-7584,E,,Public - Call ahead,24 hours daily; for hotel guest use only,,,,,,2.0,,,EV Connect,{'url': 'http://evconnect.com/'},200-9,43.09077,-76.088086,2020-04-08T00:00:00.000,94863,2021-03-11 23:22:17,P,,,2013-11-28T00:00:00.000,,,,,J1772,US,,,,Public - Appeler à l'avance,,public,CALL,,HOTEL,,,,,,,,,,,,,,,,,"{'type': 'Point', 'coordinates': [-76.088086, 43.09077]}",702,426,2132
ELEC,RTS ROCH TECH PK1,Rochester Tech Park Building 1 777 Elmgrove R,,Rochester,NY,14624,,888-758-4389,E,,Public,24 hours daily,,,,,,2.0,,,ChargePoint Network,{'url': 'http://www.chargepoint.com/'},GPS,43.153015,-77.734535,2021-07-15T00:00:00.000,180844,2021-07-15 00:25:19,,,,2021-01-27T00:00:00.000,,,,,J1772,US,,,,Public,,public,,,,,,,,,,,,,,,,,,,,"{'type': 'Point', 'coordinates': [-77.734535, 43.153015]}",549,1683,2093
ELEC,799 SENECA STATION 4,799 Seneca St,,Buffalo,NY,14210,,888-758-4389,E,,Public,Mon 5:00pm - 10:00pm; Tue 5:00pm - 10:00pm; Wed 5:00pm - 10:00pm; Thu 5:00pm - 10:00pm; Fri 5:00pm - 10:00pm; Sat 8:00am - 10:00pm; Sun 8:00am - 10:00pm,,,,,,1.0,,,ChargePoint Network,{'url': 'http://www.chargepoint.com/'},GPS,42.875091,-78.847557,2021-07-15T00:00:00.000,191245,2021-07-15 00:25:19,,,,2021-06-19T00:00:00.000,,,,,J1772,US,,,,Public,,public,,,,,,,,,,,,,,,,,,,,"{'type': 'Point', 'coordinates': [-78.847557, 42.875091]}",300,66,2041
ELEC,The American Hotel-Sag Harbor - Tesla Destination,45 Main St,,Sag Harbor,NY,11963,,631-725-3535  877-798-3752,E,,Public,24 hours daily; see front desk for access,,,,,,3.0,,,Tesla Destination,{'url': 'https://www.tesla.com/destination-charging'},200-9,41.001268,-72.29503,2020-11-03T00:00:00.000,150489,2021-03-11 23:22:17,P,,,2019-09-30T00:00:00.000,,,,,TESLA,US,,,,Public,,public,,,,,,,,,,Free,,,,,,,,,,"{'type': 'Point', 'coordinates': [-72.29503, 41.001268]}",1013,1646,2179
ELEC,VILLAGE HALL STATION,49 State St,,Brockport,NY,14420,,888-758-4389,E,,Public,24 hours daily,,,,,,2.0,,,ChargePoint Network,{'url': 'http://www.chargepoint.com/'},GPS,43.214395,-77.936224,2021-07-15T00:00:00.000,162355,2021-07-15 00:25:19,,,,2020-06-12T00:00:00.000,,,,,J1772,US,,,,Public,,public,,,,,,,,,,,,,,,,,,,,"{'type': 'Point', 'coordinates': [-77.936224, 43.214395]}",535,175,2093
ELEC,KMA PARKING LOT KMA PARKING LOT,134 Jay St,,Katonah,NY,10536,,888-758-4389,E,,Public,24 hours daily,,,,,,2.0,,,ChargePoint Network,{'url': 'http://www.chargepoint.com/'},GPS,41.262887,-73.67279,2021-07-15T00:00:00.000,191399,2021-07-15 00:25:19,,,,2021-06-23T00:00:00.000,,,,,J1772,US,,,,Public,,public,,,,,,,,,,,,,,,,,,,,"{'type': 'Point', 'coordinates': [-73.67279, 41.262887]}",977,1254,2185
ELEC,CITY AMSTERDAM EV5,117 Hewitt Street Shuttleworth Park,,Amsterdam,NY,12010,,888-758-4389,E,,Public,24 hours daily,,,,,,2.0,,,ChargePoint Network,{'url': 'http://www.chargepoint.com/'},GPS,42.960293,-74.172179,2021-07-15T00:00:00.000,187635,2021-07-15 00:25:19,,,,2021-04-15T00:00:00.000,,,,,J1772,US,,,,Public,,public,,,,,,,,,,,,,,,,,,,,"{'type': 'Point', 'coordinates': [-74.172179, 42.960293]}",497,1143,624
ELEC,TSS ALBANY STATIONS 3 & 4,2 Commerce Park Dr,,Schenectady,NY,12309,,888-758-4389,E,,Public,24 hours daily,,,,,,2.0,,,ChargePoint Network,{'url': 'http://www.chargepoint.com/'},GPS,42.832916,-73.90389,2021-07-15T00:00:00.000,183224,2021-07-15 00:25:19,,,,2021-01-27T00:00:00.000,,,,,J1772,US,,,,Public,,public,,,,,,,,,,,,,,,,,,,,"{'type': 'Point', 'coordinates': [-73.90389, 42.832916]}",107,78,2142
ELEC,CAP REP GARAGE 93 NORTH 1.4,93 N Pearl St,,Albany,NY,12207,,888-758-4389,E,,Public,24 hours daily,,,,,,2.0,,,ChargePoint Network,{'url': 'http://www.chargepoint.com/'},GPS,42.652657,-73.75043,2021-07-15T00:00:00.000,183664,2021-07-15 00:25:19,,,,2021-01-30T00:00:00.000,,,,,J1772,US,,,,Public,,public,,,,,,,,,,,,,,,,,,,,"{'type': 'Point', 'coordinates': [-73.75043, 42.652657]}",814,44,2030
ELEC,NEW HARTFORD GW-1 1.5,8635 Clinton St,,New Hartford,NY,13413,,888-758-4389,E,,Public,24 hours daily,,,,,,2.0,,,ChargePoint Network,{'url': 'http://www.chargepoint.com/'},GPS,43.09286,-75.3164,2021-07-15T00:00:00.000,174766,2021-07-15 00:25:19,,,,2021-01-27T00:00:00.000,,,,,J1772,US,,,,Public,,public,,,,,,,,,,,,,,,,,,,,"{'type': 'Point', 'coordinates': [-75.3164, 43.09286]}",921,1274,625
ELEC,GLOVERS PARKING STATION 2,85 Mill Rd,,Westhampton Beach,NY,11978,,888-758-4389,E,,Public,24 hours daily,,,,,,2.0,,,ChargePoint Network,{'url': 'http://www.chargepoint.com/'},GPS,40.81219,-72.643446,2021-07-15T00:00:00.000,162270,2021-07-15 00:25:19,,,,2020-06-12T00:00:00.000,,,,,J1772,US,,,,Public,,public,,,,,,,,,,,,,,,,,,,,"{'type': 'Point', 'coordinates': [-72.643446, 40.81219]}",1013,1138,2179
ELEC,Village of Mt. Morris - Veterans Park,185 Main St,,Mt. Morris,NY,14510,,866-816-7584,E,,Public - Credit card at all times,24 hours daily; Also accepts PayPal and Apple Pay,A D M V,,,,,4.0,,,EV Connect,{'url': 'http://evconnect.com/'},GPS,42.718547,-77.86958,2020-12-03T00:00:00.000,168430,2021-03-11 23:22:17,LG,,,2020-09-03T00:00:00.000,,,,,J1772,US,,,,Public - Carte de crédit en tout temps,,public,CREDIT_CARD_ALWAYS,,MUNI_GOV,,,,,,,,,,,,,,,,,"{'type': 'Point', 'coordinates': [-77.86958, 42.718547]}",740,321,2091
ELEC,NEFJ EV 2,1575 Western Ave,,Albany,NY,12203,,888-758-4389,E,,Public,Mon 9:00am - 6:00pm; Tue 9:00am - 6:00pm; Wed 9:00am - 6:00pm; Thu 9:00am - 6:00pm; Fri 9:00am - 6:00pm; Sat 9:00am - 6:00pm,,,,,,2.0,,,ChargePoint Network,{'url': 'http://www.chargepoint.com/'},GPS,42.685026,-73.847941,2021-07-15T00:00:00.000,191762,2021-07-15 00:25:19,,,,2021-07-03T00:00:00.000,,,,,J1772,US,,,,Public,,public,,,,,,,,,,,,,,,,,,,,"{'type': 'Point', 'coordinates': [-73.847941, 42.685026]}",832,40,2030
ELEC,MAIN LOT EV 1,112 Main St,,Dobbs Ferry,NY,10522,,888-758-4389,E,,Public,24 hours daily,,,,,,2.0,,,ChargePoint Network,{'url': 'http://www.chargepoint.com/'},GPS,41.015691,-73.874532,2021-07-15T00:00:00.000,162468,2021-07-15 00:25:19,,,,2020-06-12T00:00:00.000,,,,,J1772,US,,,,Public,,public,,,,,,,,,,,,,,,,,,,,"{'type': 'Point', 'coordinates': [-73.874532, 41.015691]}",974,1244,2185
ELEC,Amtrak - Niagara Falls,825 Depot Ave W,,Niagara Falls,NY,14305,,716-285-0242,E,,Public,24 hours daily,,,,,,2.0,,,Non-Networked,,GPS,43.110202,-79.05543,2020-06-09T00:00:00.000,147094,2021-03-11 23:22:17,P,,,2019-10-01T00:00:00.000,,,,,J1772,US,,,,Public,,public,,,PAY_LOT,,,,,,,Free,,,,,,,,,,"{'type': 'Point', 'coordinates': [-79.05543, 43.110202]}",159,169,2131
ELEC,CITY AMSTERDAM P&RB EV 2,201 Locust Ave Park and Recreation Building,,Amsterdam,NY,12010,,888-758-4389,E,,Public,24 hours daily,,,,,,2.0,,,ChargePoint Network,{'url': 'http://www.chargepoint.com/'},GPS,42.94849,-74.179,2021-07-15T00:00:00.000,188177,2021-07-15 00:25:19,,,,2021-04-30T00:00:00.000,,,,,J1772,US,,,,Public,,public,,,,,,,,,,,,,,,,,,,,"{'type': 'Point', 'coordinates': [-74.179, 42.94849]}",497,1143,624
ELEC,NYSE Thruway - NYPA,2660 Brickyard Rd,,Warners,NY,13164,,866-816-7584,E,,Public - Credit card at all times,24 hours daily; Also accepts PayPal,A APPLE_PAY D M V,,,,,,2.0,,EV Connect,{'url': 'http://evconnect.com/'},GPS,43.09253,-76.31896,2021-06-07T00:00:00.000,190224,2021-06-07 17:37:37,LG,,,2021-03-31T00:00:00.000,,,,,CHADEMO J1772COMBO,US,,,,Public - Carte de crédit en tout temps,,public,CREDIT_CARD_ALWAYS,,TRAVEL_CENTER,,,,,,,,,,,,,,,,,"{'type': 'Point', 'coordinates': [-76.31896, 43.09253]}",685,700,2132
ELEC,SOLOMON TWIN LAKES APT,1A Lakeview Drive,,Clifton Park,NY,12065,,888-758-4389,E,,Public,24 hours daily,,,,,,2.0,,,ChargePoint Network,{'url': 'http://www.chargepoint.com/'},GPS,42.854624,-73.768548,2021-07-15T00:00:00.000,162226,2021-07-15 00:25:19,,,,2020-06-12T00:00:00.000,,,,,J1772,US,,,,Public,,public,,,,,,,,,,,,,,,,,,,,"{'type': 'Point', 'coordinates': [-73.768548, 42.854624]}",1002,1190,2141
ELEC,NATIONAL GRID TOPSWILLIAMSVLL,5274 Main St,,Williamsville,NY,14221,,888-758-4389,E,,Public,24 hours daily,,,,,,2.0,,,ChargePoint Network,{'url': 'http://www.chargepoint.com/'},GPS,42.962402,-78.757219,2021-07-15T00:00:00.000,162248,2021-07-15 00:25:19,,,,2020-06-12T00:00:00.000,,,,,J1772,US,,,,Public,,public,,,,,,,,,,,,,,,,,,,,"{'type': 'Point', 'coordinates': [-78.757219, 42.962402]}",304,110,2041
ELEC,125 Victory Hwy - Tesla Supercharger,125 Victory Hwy Painted Post,,Painted Post,NY,14870,,877-798-3752,E,,Public,24 hours daily; for Tesla use only,,,,,,,10.0,,Tesla,{'url': 'http://www.teslamotors.com/supercharger'},200-9,42.1708,-77.1081,2020-08-10T00:00:00.000,102338,2021-03-11 23:22:17,P,,,2018-07-23T00:00:00.000,,,,,TESLA,US,,,,Public,,public,,,,,,,,,,$0.28 per kWh; $0.26 per minute above 60 kW and $0.13 per minute at or below 60 kW,,,,,,,,,,"{'type': 'Point', 'coordinates': [-77.1081, 42.1708]}",36,56,2178
ELEC,DEER PARK TANGER EV 4,152 The Arches Cir,,Deer Park,NY,11729,,888-758-4389,E,,Public,24 hours daily,,,,,,2.0,,,ChargePoint Network,{'url': 'http://www.chargepoint.com/'},GPS,40.762409,-73.30568,2021-07-15T00:00:00.000,162405,2021-07-15 00:25:19,,,,2020-06-12T00:00:00.000,,,,,J1772,US,,,,Public,,public,,,,,,,,,,,,,,,,,,,,"{'type': 'Point', 'coordinates': [-73.30568, 40.762409]}",1023,1110,2179
ELEC,RPI 1 RPI FLEET,2144 Burdett Ave,,Troy,NY,12180,,888-758-4389,E,,Public,24 hours daily,,,,,,1.0,,,ChargePoint Network,{'url': 'http://www.chargepoint.com/'},GPS,42.732209,-73.671332,2021-07-15T00:00:00.000,162147,2021-07-15 00:25:19,,,,2020-06-12T00:00:00.000,,,,,J1772,US,,,,Public,,public,,,,,,,,,,,,,,,,,,,,"{'type': 'Point', 'coordinates': [-73.671332, 42.732209]}",110,11,2138
ELEC,ROCHESTER NY PORT OF ROCH 2,1000 N River St,,Rochester,NY,14612,,888-758-4389,E,,Public,24 hours daily,,,,,,2.0,,,ChargePoint Network,{'url': 'http://www.chargepoint.com/'},GPS,43.256393,-77.606857,2021-07-15T00:00:00.000,171697,2021-07-15 00:25:19,,,,2021-01-27T00:00:00.000,,,,,J1772,US,,,,Public,,public,,,,,,,,,,,,,,,,,,,,"{'type': 'Point', 'coordinates': [-77.606857, 43.256393]}",537,1670,2093
ELEC,PICOTTE 22 CORPORATE 5,22 Corporate Woods Blvd,,Albany,NY,12211,,888-758-4389,E,,Public,24 hours daily,,,,,,2.0,,,ChargePoint Network,{'url': 'http://www.chargepoint.com/'},GPS,42.68139,-73.768394,2021-07-15T00:00:00.000,181106,2021-07-15 00:25:19,,,,2021-01-27T00:00:00.000,,,,,J1772,US,,,,Public,,public,,,,,,,,,,,,,,,,,,,,"{'type': 'Point', 'coordinates': [-73.768394, 42.68139]}",834,48,2030
ELEC,RPI 1 OFF CAMPUS S1,1525 15th St,,Troy,NY,12180,,888-758-4389,E,,Public,24 hours daily,,,,,,2.0,,,ChargePoint Network,{'url': 'http://www.chargepoint.com/'},GPS,42.726645,-73.678464,2021-07-15T00:00:00.000,121237,2021-07-15 00:25:19,,,,2019-04-06T00:00:00.000,,,,,J1772,US,,,,Public,,public,,,,,,,,,,,,,,,,,,,,"{'type': 'Point', 'coordinates': [-73.678464, 42.726645]}",110,11,2138
ELEC,East West Tower Garage - Tesla Destination,142-38 37th Ave,,Flushing,NY,11354,,718-228-4324  877-798-3752,E,,Public,24 hours daily; pay lot; see valet for access,,,,,,4.0,,,Tesla Destination,{'url': 'https://www.tesla.com/destination-charging'},200-8,40.762536,-73.826279,2020-11-03T00:00:00.000,150531,2021-03-11 23:22:17,P,,,2019-09-30T00:00:00.000,,,,,TESLA,US,,,,Public,,public,,,,,,,,,,Free,,,,,,,,,,"{'type': 'Point', 'coordinates': [-73.826279, 40.762536]}",196,824,2137
ELEC,Hannaford Supermarket,5 Maple Rd,,Voorheesville,NY,12186,,877-455-3833,E,,Public,24 hours daily,,,,,,,1.0,,eVgo Network,{'url': 'https://www.evgo.com/'},GPS,42.649353,-73.923215,2021-07-15T00:00:00.000,192181,2021-07-15 01:08:46,,,,2021-07-04T00:00:00.000,,,,,CHADEMO J1772COMBO,US,,,,Public,,public,,,,,,,,,,,,,,,,,,,,"{'type': 'Point', 'coordinates': [-73.923215, 42.649353]}",830,16,2030
ELEC,MAIN 2ND FLOOR 1 GW,1133 Route 414 Parking Garage,,Waterloo,NY,13165,,888-758-4389,E,,Public,24 hours daily,,,,,,2.0,,,ChargePoint Network,{'url': 'http://www.chargepoint.com/'},GPS,42.969486,-76.845263,2021-07-15T00:00:00.000,162377,2021-07-15 00:25:19,,,,2020-06-12T00:00:00.000,,,,,J1772,US,,,,Public,,public,,,,,,,,,,,,,,,,,,,,"{'type': 'Point', 'coordinates': [-76.845263, 42.969486]}",576,701,2144
ELEC,Tazza Cafe,186 Katonah Ave,,Katonah,NY,10536,,877-455-3833,E,,Public,24 hours daily,,,,,,,1.0,,eVgo Network,{'url': 'https://www.evgo.com/'},GPS,41.256656,-73.684266,2021-07-15T00:00:00.000,192409,2021-07-15 01:08:46,,,,2021-07-04T00:00:00.000,,,,,CHADEMO J1772COMBO,US,,,,Public,,public,,,,,,,,,,,,,,,,,,,,"{'type': 'Point', 'coordinates': [-73.684266, 41.256656]}",977,1254,2185
ELEC,RRH ST MARYS 3,89 Genesee St,,Rochester,NY,14611,,888-758-4389,E,,Public,24 hours daily,,,,,,2.0,,,ChargePoint Network,{'url': 'http://www.chargepoint.com/'},GPS,43.149392,-77.636784,2021-07-15T00:00:00.000,174451,2021-07-15 00:25:19,,,,2021-01-27T00:00:00.000,,,,,J1772,US,,,,Public,,public,,,,,,,,,,,,,,,,,,,,"{'type': 'Point', 'coordinates': [-77.636784, 43.149392]}",537,1669,2093
LPG,Combined Energy Services,276 E Broadway,Located at the corner of Pleasantview Ave,Monticello,NY,12701,,845-794-1210  845-794-6226,E,,Public,8am-5pm daily,Cash Checks D M V,,,,,,,,,,200-9,41.651953,-74.672938,2021-03-15T00:00:00.000,13401,2021-03-15 13:14:11,P,,,1999-07-08T00:00:00.000,,,True,,,US,,,,Public,,public,,,FUEL_RESELLER,,,,,,,,,"ACME"", ""QUICK_CONNECT",,,,,,,,"{'type': 'Point', 'coordinates': [-74.672938, 41.651953]}",650,1024,2180
ELEC,ERIE COUNTY SPRAGUE BROOK,9674 Foote Rd,,Glenwood,NY,14069,,888-758-4389,E,,Public,24 hours daily,,,,,,2.0,,,ChargePoint Network,{'url': 'http://www.chargepoint.com/'},GPS,42.58734,-78.63811,2021-07-15T00:00:00.000,165307,2021-07-15 00:25:19,,,,2020-08-19T00:00:00.000,,,,,J1772,US,,,,Public,,public,,,,,,,,,,,,,,,,,,,,"{'type': 'Point', 'coordinates': [-78.63811, 42.58734]}",294,524,2041
ELEC,Gallin Beeler Design Studio,23 Washington Ave,,Pleasantville,NY,10570,,866-816-7584,E,,Public,24 hours daily,,,,,,3.0,,,EV Connect,{'url': 'http://evconnect.com/'},GPS,41.135753,-73.7914967,2020-04-08T00:00:00.000,123192,2021-03-11 23:22:17,P,,,2019-04-01T00:00:00.000,,,,,J1772,US,,,,Public,,public,,,OFFICE_BLDG,,,,,,,,,,,,,,,,,"{'type': 'Point', 'coordinates': [-73.7914967, 41.135753]}",963,1336,2185
ELEC,ERIE COUNTY ELMA MEADOWS,1711 Girdle Rd,,Elma,NY,14059,,888-758-4389,E,,Public,24 hours daily,,,,,,2.0,,,ChargePoint Network,{'url': 'http://www.chargepoint.com/'},GPS,42.82542,-78.595024,2021-07-15T00:00:00.000,154704,2021-07-15 00:25:19,,,,2020-03-25T00:00:00.000,,,,,J1772,US,,,,Public,,public,,,,,,,,,,,,,,,,,,,,"{'type': 'Point', 'coordinates': [-78.595024, 42.82542]}",292,515,2041
ELEC,Icon Parking 101 W 15th - Tesla Destination,101 W 15th St,,New York,NY,10011,,212-243-4201  877-798-3752,E,,Public,24 hours daily; pay lot,,,,,,4.0,,,Tesla Destination,{'url': 'https://www.tesla.com/destination-charging'},200-8,40.738352,-73.996519,2020-11-03T00:00:00.000,114992,2021-03-11 23:22:17,P,,,2018-11-01T00:00:00.000,,,,,TESLA,US,,,,Public,,public,,,PAY_GARAGE,,,,,,,Free,,,,,,,,,,"{'type': 'Point', 'coordinates': [-73.996519, 40.738352]}",749,735,2095
E85,BP,594 Nepperhan Ave,,Yonkers,NY,10703,,914-294-0469,E,,Public - Credit card after hours,7am-12am daily,A Cash D M V Voyager Wright_Exp,,,,,,,,,,200-9,40.94611,-73.88224,2020-03-03T00:00:00.000,53852,2021-03-10 12:45:34,P,,,2013-12-15T00:00:00.000,,,,False,,US,,,,Public - Carte de crédit après les heures d'ouverture,,public,CREDIT_CARD_AFTER_HOURS,,CONVENIENCE_STORE,,,,,,,,,,,,,,,,,"{'type': 'Point', 'coordinates': [-73.88224, 40.94611]}",948,1442,2185
ELEC,COLE GROUP COLUMBIA 1,32 Columbia Gardens,,Cohoes,NY,12047,,888-758-4389,E,,Public,24 hours daily,,,,,,2.0,,,ChargePoint Network,{'url': 'http://www.chargepoint.com/'},GPS,42.770966,-73.71627,2021-07-15T00:00:00.000,175243,2021-07-15 00:25:19,,,,2021-01-27T00:00:00.000,,,,,J1772,US,,,,Public,,public,,,,,,,,,,,,,,,,,,,,"{'type': 'Point', 'coordinates': [-73.71627, 42.770966]}",835,1176,2030
ELEC,SWL SARANAC 1.1,234 Lake Flower Ave,,Saranac Lake,NY,12983,,888-758-4389,E,,Public,24 hours daily,,,,,,2.0,,,ChargePoint Network,{'url': 'http://www.chargepoint.com/'},GPS,44.322773,-74.123146,2021-07-15T00:00:00.000,181789,2021-07-15 00:25:19,,,,2021-01-27T00:00:00.000,,,,,J1772,US,,,,Public,,public,,,,,,,,,,,,,,,,,,,,"{'type': 'Point', 'coordinates': [-74.123146, 44.322773]}",430,303,2084
ELEC,I-SQUARE MAIN LOT (EAST),400 Bakers Park,,Rochester,NY,14617,,888-758-4389,E,,Public,24 hours daily,,,,,,2.0,,,ChargePoint Network,{'url': 'http://www.chargepoint.com/'},GPS,43.209981,-77.598396,2021-07-15T00:00:00.000,162434,2021-07-15 00:25:19,,,,2020-06-12T00:00:00.000,,,,,J1772,US,,,,Public,,public,,,,,,,,,,,,,,,,,,,,"{'type': 'Point', 'coordinates': [-77.598396, 43.209981]}",545,1676,2093
ELEC,MARKET 32 EV PEDIATRICEV2,81 Schoolhouse Rd,,Albany,NY,12203,,888-758-4389,E,,Public,24 hours daily,,,,,,2.0,,,ChargePoint Network,{'url': 'http://www.chargepoint.com/'},GPS,42.678982,-73.844918,2021-07-15T00:00:00.000,175507,2021-07-15 00:25:19,,,,2021-01-27T00:00:00.000,,,,,J1772,US,,,,Public,,public,,,,,,,,,,,,,,,,,,,,"{'type': 'Point', 'coordinates': [-73.844918, 42.678982]}",832,40,2030
ELEC,RTC WALSH 1,1 Walsh Cir,,Syracuse,NY,13208,,888-758-4389,E,,Public,24 hours daily,,,,,,2.0,,,ChargePoint Network,{'url': 'http://www.chargepoint.com/'},GPS,43.075874,-76.1697,2021-07-15T00:00:00.000,152409,2021-07-15 00:25:19,,,,2020-01-14T00:00:00.000,,,,,J1772,US,,,,Public,,public,,,,,,,,,,,,,,,,,,,,"{'type': 'Point', 'coordinates': [-76.1697, 43.075874]}",687,726,2132
ELEC,The William Vale Hotel - Tesla Destination,111 N 12th St,,Brooklyn,NY,11249,,718-631-8400  877-798-3752,E,,Public,24 hours daily; for customer use only; see valet for access,,,,,,4.0,,,Tesla Destination,{'url': 'https://www.tesla.com/destination-charging'},200-8,40.722362,-73.957208,2020-11-03T00:00:00.000,114919,2021-03-11 23:22:17,P,,,2016-10-01T00:00:00.000,,,,,TESLA,US,,,,Public,,public,,,HOTEL,,,,,,,Free,,,,,,,,,,"{'type': 'Point', 'coordinates': [-73.957208, 40.722362]}",894,889,2090
E85,BP,102 Lake Rd,,Congers,NY,10920,,845-268-6454,E,,Public,24 hours daily,A Cash D M V Voyager Wright_Exp,,,,,,,,,,200-9,41.146978,-73.933908,2020-08-05T00:00:00.000,35431,2021-03-10 12:45:34,P,,,2010-02-22T00:00:00.000,,,,False,,US,,,,Public,,public,,,CONVENIENCE_STORE,,,,,,,,,,,,,,,,,"{'type': 'Point', 'coordinates': [-73.933908, 41.146978]}",532,1500,628
ELEC,PJ VILLAGE ROCKETSHIP PARK,Rossner lane,,Port Jefferson,NY,11777,,888-758-4389,E,,Public,24 hours daily,,,,,,2.0,,,ChargePoint Network,{'url': 'http://www.chargepoint.com/'},GPS,40.945023,-73.069455,2021-07-15T00:00:00.000,156297,2021-07-15 00:25:19,,,,2020-05-15T00:00:00.000,,,,,J1772,US,,,,Public,,public,,,,,,,,,,,,,,,,,,,,"{'type': 'Point', 'coordinates': [-73.069455, 40.945023]}",1022,1324,2179
ELEC,Westchester Medical Center,100 Woods Rd,,Valhalla,NY,10595,,866-816-7584,E,,Public,24 hours daily,,,,,,2.0,,,EV Connect,{'url': 'http://evconnect.com/'},GPS,41.086676,-73.8060649,2020-04-08T00:00:00.000,123262,2021-03-11 23:22:17,P,,,2019-04-01T00:00:00.000,,,,,J1772,US,,,,Public,,public,,,HOSPITAL,,,,,,,,,,,,,,,,,"{'type': 'Point', 'coordinates': [-73.8060649, 41.086676]}",963,1349,2185
ELEC,MPG 10 E 102nd Street - Tesla Destination,10 E 102nd St,,New York,NY,10029,,212-249-1947  877-798-3752,E,,Public,24 hours daily; for customer use only; see valet for access,,,,,,3.0,,,Tesla Destination,{'url': 'https://www.tesla.com/destination-charging'},200-9,40.791232,-73.95237,2020-11-03T00:00:00.000,114983,2021-03-11 23:22:17,P,,,2017-09-01T00:00:00.000,,,,,J1772 TESLA,US,,,,Public,,public,,,PAY_GARAGE,,,,,,,Free,,,,,,,,,,"{'type': 'Point', 'coordinates': [-73.95237, 40.791232]}",749,756,2095
ELEC,Holiday Inn Express Olean - Tesla Destination,101 Main St,,Olean,NY,14760,,716-375-1000  877-798-3752,E,,Public - Call ahead,24 hours daily; for customer use only,,,,,,3.0,,,Tesla Destination,{'url': 'https://www.tesla.com/destination-charging'},200-9,42.087509,-78.42909,2020-11-03T00:00:00.000,115202,2021-03-11 23:22:17,P,,,2018-11-01T00:00:00.000,,,,,J1772 TESLA,US,,,,Public - Appeler à l'avance,,public,CALL,,HOTEL,,,,,,,Free,,,,,,,,,,"{'type': 'Point', 'coordinates': [-78.42909, 42.087509]}",348,1732,2034
ELEC,Icon Parking 220 Riverside Blvd - Tesla Destination,220 Riverside Blvd,,New York,NY,10024,,212-501-0016  877-798-3752,E,,Public,24 hours daily; see valet for access,,,,,,6.0,,,Tesla Destination,{'url': 'https://www.tesla.com/destination-charging'},200-9,40.77975,-73.987272,2020-11-03T00:00:00.000,115054,2021-03-11 23:22:17,P,,,2016-01-01T00:00:00.000,,,,,J1772 TESLA,US,,,,Public,,public,,,PAY_GARAGE,,,,,,,Free,,,,,,,,,,"{'type': 'Point', 'coordinates': [-73.987272, 40.77975]}",749,576,2095
ELEC,TSS ALBANY STATIONS 1 & 2,2 Commerce Park Dr,,Schenectady,NY,12309,,888-758-4389,E,,Public,24 hours daily,,,,,,2.0,,,ChargePoint Network,{'url': 'http://www.chargepoint.com/'},GPS,42.83288,-73.90392,2021-07-15T00:00:00.000,183223,2021-07-15 00:25:19,,,,2021-01-27T00:00:00.000,,,,,J1772,US,,,,Public,,public,,,,,,,,,,,,,,,,,,,,"{'type': 'Point', 'coordinates': [-73.90392, 42.83288]}",107,78,2142
ELEC,ROSENBLUM300 3 WINNERS 1,3 Winners Cir,,Albany,NY,12205,,888-758-4389,E,,Public,24 hours daily,,,,,,2.0,,,ChargePoint Network,{'url': 'http://www.chargepoint.com/'},GPS,42.721029,-73.797244,2021-07-15T00:00:00.000,173998,2021-07-15 00:25:19,,,,2021-01-27T00:00:00.000,,,,,J1772,US,,,,Public,,public,,,,,,,,,,,,,,,,,,,,"{'type': 'Point', 'coordinates': [-73.797244, 42.721029]}",834,42,2030
ELEC,THERMAL QUICK AG EV4,11 sitterly road,,Clifton Park,NY,12065,,888-758-4389,E,,Public,24 hours daily,,,,,,2.0,,,ChargePoint Network,{'url': 'http://www.chargepoint.com/'},GPS,42.8508,-73.757274,2021-07-15T00:00:00.000,168029,2021-07-15 00:25:19,,,,2020-10-30T00:00:00.000,,,,,J1772,US,,,,Public,,public,,,,,,,,,,,,,,,,,,,,"{'type': 'Point', 'coordinates': [-73.757274, 42.8508]}",1002,1190,2141
ELEC,STATION 1 TOWN OF LG,20 Old Post Rd,,Lake George,NY,12845,,888-758-4389,E,,Public,24 hours daily,,,,,,2.0,,,ChargePoint Network,{'url': 'http://www.chargepoint.com/'},GPS,43.431325,-73.717171,2021-07-15T00:00:00.000,162366,2021-07-15 00:25:19,,,,2020-06-12T00:00:00.000,,,,,J1772,US,,,,Public,,public,,,,,,,,,,,,,,,,,,,,"{'type': 'Point', 'coordinates': [-73.717171, 43.431325]}",820,128,2183
ELEC,Icon Parking 55 W 14th Street - Tesla Destination,55 W 14th St,,New York,NY,10011,,212-242-9218  877-798-3752,E,,Public,24 hours daily; see valet for access,,,,,,3.0,,,Tesla Destination,{'url': 'https://www.tesla.com/destination-charging'},200-9,40.737266,-73.99611,2020-11-03T00:00:00.000,115159,2021-03-11 23:22:17,P,,,2016-05-01T00:00:00.000,,,,,J1772 TESLA,US,,,,Public,,public,,,PAY_GARAGE,,,,,,,Free,,,,,,,,,,"{'type': 'Point', 'coordinates': [-73.99611, 40.737266]}",749,735,2095
ELEC,BEVERWYCK STATION 2,3 Autumn Dr Beverwyck,,Slingerlands,NY,12159,,888-758-4389,E,,Public,24 hours daily,,,,,,2.0,,,ChargePoint Network,{'url': 'http://www.chargepoint.com/'},GPS,42.657453,-73.838373,2021-07-15T00:00:00.000,164420,2021-07-15 00:25:19,,,,2020-07-22T00:00:00.000,,,,,J1772,US,,,,Public,,public,,,,,,,,,,,,,,,,,,,,"{'type': 'Point', 'coordinates': [-73.838373, 42.657453]}",837,1406,2030
ELEC,Sky Zone Trampoline Park,33 LeCount Pl,,New Rochelle,NY,10801,,866-816-7584,E,,Public,Business hours,,,,,,4.0,,,EV Connect,{'url': 'http://evconnect.com/'},200-9,40.911315,-73.779296,2020-04-08T00:00:00.000,94853,2021-03-11 23:22:17,P,,,2016-03-28T00:00:00.000,,,,,J1772,US,,,,Public,,public,,,OTHER_ENTERTAINMENT,,,,,,,,,,,,,,,,,"{'type': 'Point', 'coordinates': [-73.779296, 40.911315]}",960,1450,2185
ELEC,Holiday Inn Hotel & Suites Rochester - Marketplace - Tesla Destination,800 Jefferson Rd,,Rochester,NY,14623,,585-475-9190  877-798-3752,E,,Public,24 hours daily; for customer use only; see front desk for access,,,,,,3.0,,,Tesla Destination,{'url': 'https://www.tesla.com/destination-charging'},200-8,43.087417,-77.616929,2020-11-03T00:00:00.000,115226,2021-03-11 23:22:17,P,,,2018-11-01T00:00:00.000,,,,,J1772 TESLA,US,,,,Public,,public,,,HOTEL,,,,,,,Free,,,,,,,,,,"{'type': 'Point', 'coordinates': [-77.616929, 43.087417]}",546,1682,2093
ELEC,MARKET 32 EV SARANAC EV1,1930 Saranac Ave,,Lake Placid,NY,12946,,888-758-4389,E,,Public,24 hours daily,,,,,,2.0,,,ChargePoint Network,{'url': 'http://www.chargepoint.com/'},GPS,44.294688,-74.011179,2021-07-15T00:00:00.000,158556,2021-07-15 00:25:19,,,,2020-06-06T00:00:00.000,,,,,J1772,US,,,,Public,,public,,,,,,,,,,,,,,,,,,,,"{'type': 'Point', 'coordinates': [-74.011179, 44.294688]}",430,275,2084
CNG,Clean Energy - Islip Resource Recovery Agency,4001 Veterans Memorial Hwy,,Ronkonkoma,NY,11779,,866-809-4869,E,,Public - Credit card at all times,24 hours daily; station can accommodate up to tractor-trailers,CleanEnergy D M Proprietor TCH Tchek V Voyager,,Q,3600,,,,,,,200-9,40.78642,-73.105125,2021-01-14T00:00:00.000,71421,2021-03-04 18:40:37,P,,,2015-11-15T00:00:00.000,,MD,,,,US,,,,Public - Carte de crédit en tout temps,,public,CREDIT_CARD_ALWAYS,,STANDALONE_STATION,1.0,,,,,,,,,,,Q,3600,MD,,,"{'type': 'Point', 'coordinates': [-73.105125, 40.78642]}",1019,1421,2179
ELEC,Icon Parking 5 E 22nd Street - Tesla Destination,5  E 22nd St,,New York,NY,10010,,212-674-9002  877-798-3752,E,,Public,24 hours daily; see valet for access,,,,,,3.0,,,Tesla Destination,{'url': 'https://www.tesla.com/destination-charging'},200-9,40.740794,-73.988885,2020-11-03T00:00:00.000,115142,2021-03-11 23:22:17,P,,,2016-05-01T00:00:00.000,,,,,J1772 TESLA,US,,,,Public,,public,,,PAY_GARAGE,,,,,,,Free,,,,,,,,,,"{'type': 'Point', 'coordinates': [-73.988885, 40.740794]}",749,734,2095
ELEC,ITHACA VISITORS COLLEGE CIRCLE,College Cir,,Ithaca,NY,14850,,888-758-4389,E,,Public,24 hours daily,,,,,,2.0,,,ChargePoint Network,{'url': 'http://www.chargepoint.com/'},GPS,42.411718,-76.500837,2021-07-15T00:00:00.000,162263,2021-07-15 00:25:19,,,,2020-06-12T00:00:00.000,,,,,J1772,US,,,,Public,,public,,,,,,,,,,,,,,,,,,,,"{'type': 'Point', 'coordinates': [-76.500837, 42.411718]}",708,1786,2181
ELEC,THE FALLS THE FALLS,158 Union Turnpike,,Hudson,NY,12534,,888-758-4389,E,,Public,24 hours daily,,,,,,2.0,,,ChargePoint Network,{'url': 'http://www.chargepoint.com/'},GPS,42.25175,-73.76392,2021-07-15T00:00:00.000,149522,2021-07-15 00:25:19,,,,2019-11-26T00:00:00.000,,,,,J1772,US,,,,Public,,public,,,,,,,,,,,,,,,,,,,,"{'type': 'Point', 'coordinates': [-73.76392, 42.25175]}",517,977,619
ELEC,Allan H. Treman State Marine Park,805 Taughannock Blvd,,Ithaca,NY,14850,,866-816-7584,E,,Public,24 hours daily,,,,,,2.0,,,EV Connect,{'url': 'http://evconnect.com/'},GPS,42.4582615,-76.5200919,2020-04-08T00:00:00.000,123135,2021-03-11 23:22:17,P,,,2019-04-01T00:00:00.000,,,,,J1772,US,,,,Public,,public,,,PARK,,,,,,,,,,,,,,,,,"{'type': 'Point', 'coordinates': [-76.5200919, 42.4582615]}",708,1786,2181
ELEC,TG EV STATIONS RIGHT STATION,35 State Route 299,,Gardiner,NY,12525,,888-758-4389,E,,Public,24 hours daily,,,,,,2.0,,,ChargePoint Network,{'url': 'http://www.chargepoint.com/'},GPS,41.74456,-74.11796,2021-07-15T00:00:00.000,154055,2021-07-15 00:25:19,,,,2020-02-27T00:00:00.000,,,,,J1772,US,,,,Public,,public,,,,,,,,,,,,,,,,,,,,"{'type': 'Point', 'coordinates': [-74.11796, 41.74456]}",416,989,2182
ELEC,2600 6TH AVE JOHNSTONE 2600,102 Jay St,,Troy,NY,12180,,888-758-4389,E,,Public,24 hours daily,,,,,,2.0,,,ChargePoint Network,{'url': 'http://www.chargepoint.com/'},GPS,42.741815,-73.682387,2021-07-15T00:00:00.000,162316,2021-07-15 00:25:19,,,,2020-06-12T00:00:00.000,,,,,J1772,US,,,,Public,,public,,,,,,,,,,,,,,,,,,,,"{'type': 'Point', 'coordinates': [-73.682387, 42.741815]}",110,11,2138
ELEC,ULYSSES TOWN ULYSSES,10 Elm St,,Trumansburg,NY,14886,,888-758-4389,E,,Public,24 hours daily,,,,,,2.0,,,ChargePoint Network,{'url': 'http://www.chargepoint.com/'},GPS,42.541251,-76.661435,2021-07-15T00:00:00.000,162327,2021-07-15 00:25:19,,,,2020-06-12T00:00:00.000,,,,,J1772,US,,,,Public,,public,,,,,,,,,,,,,,,,,,,,"{'type': 'Point', 'coordinates': [-76.661435, 42.541251]}",705,917,2181
LPG,Irish Propane,1444 Clinton St,,Buffalo,NY,14206,,716-827-2727,E,,Public,"8am-4:30pm M-F, 8am-12pm Sat",A Cash D M V,,,,,,,,,,200-8,42.872719,-78.821759,2021-03-15T00:00:00.000,26531,2021-03-15 13:14:11,P,,,2019-03-20T00:00:00.000,,,True,,,US,,,,Public,,public,,,FUEL_RESELLER,,,,,,,,,ACME,,,,,,,,"{'type': 'Point', 'coordinates': [-78.821759, 42.872719]}",300,62,2041
ELEC,RIVERHEAD RIVER 2 #1,1947 Old Country Road,,Riverhead,NY,11901,,888-758-4389,E,,Public,24 hours daily,,,,,,2.0,,,ChargePoint Network,{'url': 'http://www.chargepoint.com/'},GPS,40.919684,-72.712696,2021-07-15T00:00:00.000,180156,2021-07-15 00:25:19,,,,2021-01-27T00:00:00.000,,,,,J1772,US,,,,Public,,public,,,,,,,,,,,,,,,,,,,,"{'type': 'Point', 'coordinates': [-72.712696, 40.919684]}",1017,1530,2179
ELEC,Sylvan Parking - Pinnacle Garage,112-01 Queens Boulevard,Charger is located 1 floor below street level,Forest Hills,NY,11375,,888-998-2546,E,,Public,MON: 24 hours | TUE: 24 hours | WED: 24 hours | THU: 24 hours | FRI: 24 hours | SAT: 24 hours | SUN: 24 hours,,,,,,1.0,,,Blink Network,{'url': 'http://www.blinkcharging.com/'},GPS,40.718455,-73.83651,2021-07-14T00:00:00.000,164711,2021-07-14 22:55:15,,,,2020-08-01T00:00:00.000,,,,,J1772,US,,,,Public,,public,,,,,,,,,,Level 2: $0.59 per kWh,,,,,,,,,,"{'type': 'Point', 'coordinates': [-73.83651, 40.718455]}",196,845,2137
ELEC,Railroad Museum of Long Island - Tesla Destination,416 Griffing Ave,,Riverhead,NY,11901,,631-727-7920  877-798-3752,E,,Public - Call ahead,24 hours daily,,,,,,2.0,,,Tesla Destination,{'url': 'https://www.tesla.com/destination-charging'},200-9,40.920448,-72.666154,2020-11-03T00:00:00.000,150537,2021-03-11 23:22:17,P,,,2019-09-30T00:00:00.000,,,,,TESLA,US,,,,Public - Appeler à l'avance,,public,CALL,,,,,,,,,Free,,,,,,,,,,"{'type': 'Point', 'coordinates': [-72.666154, 40.920448]}",1017,1530,2179
ELEC,NYSE Thruway - NYPA,Plattekill Travel Plaza,,Plattekill,NY,12568,,866-816-7584,E,,Public,24 hours daily,A D M V,,,,,,2.0,,EV Connect,{'url': 'http://evconnect.com/'},GPS,41.577842,-74.085424,2020-11-09T00:00:00.000,167631,2021-03-11 23:22:17,SG,,,2020-06-23T00:00:00.000,,,,,CHADEMO J1772COMBO,US,,,,Public,,public,,,REST_STOP,,,,,,,,,,,,,,,,,"{'type': 'Point', 'coordinates': [-74.085424, 41.577842]}",890,1017,2134
ELEC,PUBLIC RESTROOM WOODSTOCK COMME,10 Rock City Rd Chamber of Commerce,,Woodstock,NY,12498,,888-758-4389,E,,Public,24 hours daily,,,,,,2.0,,,ChargePoint Network,{'url': 'http://www.chargepoint.com/'},GPS,42.041481,-74.117992,2021-07-15T00:00:00.000,162252,2021-07-15 00:25:19,,,,2020-06-12T00:00:00.000,,,,,J1772,US,,,,Public,,public,,,,,,,,,,,,,,,,,,,,"{'type': 'Point', 'coordinates': [-74.117992, 42.041481]}",406,944,2182
ELEC,ERIE COUNTY BENNETT BEACH,8276 Lake Shore Rd,,Angola,NY,14006,,888-758-4389,E,,Public,24 hours daily,,,,,,2.0,,,ChargePoint Network,{'url': 'http://www.chargepoint.com/'},GPS,42.658535,-79.06157,2021-07-15T00:00:00.000,164129,2021-07-15 00:25:19,,,,2020-07-10T00:00:00.000,,,,,J1772,US,,,,Public,,public,,,,,,,,,,,,,,,,,,,,"{'type': 'Point', 'coordinates': [-79.06157, 42.658535]}",291,483,
ELEC,STONY BROOK UNV ARENA 1,Gymnasium Rd,,Stony Brook,NY,11790,,888-758-4389,E,,Public,24 hours daily,,,,,,2.0,,,ChargePoint Network,{'url': 'http://www.chargepoint.com/'},GPS,40.917249,-73.12728,2021-07-15T00:00:00.000,162455,2021-07-15 00:25:19,,,,2020-06-12T00:00:00.000,,,,,J1772,US,,,,Public,,public,,,,,,,,,,,,,,,,,,,,"{'type': 'Point', 'coordinates': [-73.12728, 40.917249]}",1022,1434,2179
ELEC,"The Inn at Cooperstown, a Select Registry Property - Tesla Destination",16 Chestnut St,,Cooperstown,NY,13326,,607-547-5756  877-798-3752,E,,Public,24 hours daily; see front desk for access,,,,,,2.0,,,Tesla Destination,{'url': 'https://www.tesla.com/destination-charging'},200-9,42.70163,-74.926982,2020-11-03T00:00:00.000,114925,2021-03-11 23:22:17,P,,,2016-01-01T00:00:00.000,,,,,J1772 TESLA,US,,,,Public,,public,,,INN,,,,,,,Free,,,,,,,,,,"{'type': 'Point', 'coordinates': [-74.926982, 42.70163]}",902,540,2136
ELEC,Asa Ransom House - Tesla Destination,10529 Main St,,Clarence,NY,14031,,716-759-2315  877-798-3752,E,,Public,24 hours daily; for customer use only; see front desk for access,,,,,,1.0,,,Tesla Destination,{'url': 'https://www.tesla.com/destination-charging'},200-9,42.980201,-78.595784,2020-11-03T00:00:00.000,114924,2021-03-11 23:22:17,P,,,2016-01-01T00:00:00.000,,,,,TESLA,US,,,,Public,,public,,,HOTEL,,,,,,,Free,,,,,,,,,,"{'type': 'Point', 'coordinates': [-78.595784, 42.980201]}",297,495,2041
ELEC,AAA Car Care Plus,8120 Main St,,Clarence,NY,14221,,716-932-3900  855-443-3873,E,,Public,24 hours daily,,,,,,1.0,,,Non-Networked,,GPS,42.965851,-78.69278,2020-06-09T00:00:00.000,42993,2021-03-11 23:22:17,P,,,2018-12-17T00:00:00.000,,,,,J1772,US,,,,Public,,public,,,SHOPPING_CENTER,,,,,,,Free,,,,,,,,,,"{'type': 'Point', 'coordinates': [-78.69278, 42.965851]}",297,110,2041
ELEC,CHARLIE JOHNS CHARLIE JOHNS,111 Elm Lake Road,,Speculator,NY,12164,,888-758-4389,E,,Public,24 hours daily,,,,,,2.0,,,ChargePoint Network,{'url': 'http://www.chargepoint.com/'},GPS,43.502346,-74.364188,2021-07-15T00:00:00.000,163426,2021-07-15 00:25:19,,,,2020-06-17T00:00:00.000,,,,,J1772,US,,,,Public,,public,,,,,,,,,,,,,,,,,,,,"{'type': 'Point', 'coordinates': [-74.364188, 43.502346]}",865,1409,622
ELEC,MARKET 32 EV 290 SARATOGA RD,290 Saratoga Rd,,Schenectady,NY,12302,,888-758-4389,E,,Public,24 hours daily,,,,,,2.0,,,ChargePoint Network,{'url': 'http://www.chargepoint.com/'},GPS,42.87302,-73.929504,2021-07-15T00:00:00.000,152282,2021-07-15 00:25:19,,,,2020-01-08T00:00:00.000,,,,,J1772,US,,,,Public,,public,,,,,,,,,,,,,,,,,,,,"{'type': 'Point', 'coordinates': [-73.929504, 42.87302]}",108,50,2142
ELEC,SPV 2490 POND VIEW,2581-2575 Pond View,,Castleton-on-Hudson,NY,12033,,888-758-4389,E,,Public,24 hours daily,,,,,,2.0,,,ChargePoint Network,{'url': 'http://www.chargepoint.com/'},GPS,42.583511,-73.671522,2021-07-15T00:00:00.000,190838,2021-07-15 00:25:19,,,,2021-06-09T00:00:00.000,,,,,J1772,US,,,,Public,,public,,,,,,,,,,,,,,,,,,,,"{'type': 'Point', 'coordinates': [-73.671522, 42.583511]}",112,1158,2138
ELEC,VOC STATION 1,106 Union St,,Cobleskill,NY,12043,,888-758-4389,E,,Public,24 hours daily,,,,,,2.0,,,ChargePoint Network,{'url': 'http://www.chargepoint.com/'},GPS,42.678754,-74.483544,2021-07-15T00:00:00.000,192594,2021-07-15 00:25:19,,,,2021-07-07T00:00:00.000,,,,,J1772,US,,,,Public,,public,,,,,,,,,,,,,,,,,,,,"{'type': 'Point', 'coordinates': [-74.483544, 42.678754]}",169,1173,629
ELEC,Waterloo Premium Outlets,655 New York 318,,Waterloo,NY,13165,,833-632-2778,E,,Public,24 hours daily,,,,,,,4.0,,Electrify America,{'url': 'https://www.electrifyamerica.com/'},GPS,42.95593,-76.920965,2021-07-15T00:00:00.000,166226,2021-07-15 01:12:37,,,,2020-09-05T00:00:00.000,,,,,CHADEMO J1772COMBO,US,,,,Public,,public,,,,,,,,,,,,,,,,,,,,"{'type': 'Point', 'coordinates': [-76.920965, 42.95593]}",581,701,2144
ELEC,ULSTER COUNTY PROBATION DEPT,733 Broadway,,Kingston,NY,12401,,888-758-4389,E,,Public,24 hours daily,,,,,,2.0,,,ChargePoint Network,{'url': 'http://www.chargepoint.com/'},GPS,41.931091,-74.010589,2021-07-15T00:00:00.000,162129,2021-07-15 00:25:19,,,,2020-06-12T00:00:00.000,,,,,J1772,US,,,,Public,,public,,,,,,,,,,,,,,,,,,,,"{'type': 'Point', 'coordinates': [-74.010589, 41.931091]}",425,79,2182
ELEC,ABM Parking Services 285 W 50th Street LLC - Tesla Destination,285 W 50th St,,New York,NY,10019,,212-757-6500  877-798-3752,E,,Public,24 hours daily; see valet for access,,,,,,3.0,,,Tesla Destination,{'url': 'https://www.tesla.com/destination-charging'},200-8,40.762337,-73.985727,2020-11-03T00:00:00.000,115078,2021-03-11 23:22:17,P,,,2016-01-01T00:00:00.000,,,,,J1772 TESLA,US,,,,Public,,public,,,PAY_GARAGE,,,,,,,Free,,,,,,,,,,"{'type': 'Point', 'coordinates': [-73.985727, 40.762337]}",749,742,2095
ELEC,FMCC FMCC 1,2805 NY-67,,Johnstown,NY,12095,,888-758-4389,E,,Public,24 hours daily,,,,,,2.0,,,ChargePoint Network,{'url': 'http://www.chargepoint.com/'},GPS,42.983444,-74.29299,2021-07-15T00:00:00.000,174638,2021-07-15 00:25:19,,,,2021-01-27T00:00:00.000,,,,,J1772,US,,,,Public,,public,,,,,,,,,,,,,,,,,,,,"{'type': 'Point', 'coordinates': [-74.29299, 42.983444]}",484,1238,624
ELEC,Champion Parking W 57th Street - Tesla Destination,320 W 57th St,,New York,NY,10019,,212-308-5959  877-798-3752,E,,Public,24 hours daily; see valet for access,,,,,,3.0,,,Tesla Destination,{'url': 'https://www.tesla.com/destination-charging'},200-9,40.767194,-73.984544,2020-11-03T00:00:00.000,115095,2021-03-11 23:22:17,P,,,2016-01-01T00:00:00.000,,,,,J1772 TESLA,US,,,,Public,,public,,,PAY_GARAGE,,,,,,,Free,,,,,,,,,,"{'type': 'Point', 'coordinates': [-73.984544, 40.767194]}",749,742,2095
ELEC,Niagara Falls International Airport,2035 Niagara Falls Blvd,Located in parking lot 1 in front of the terminal,Niagara Falls,NY,14304,,716-855-7300,E,,Public,24 hours daily,,,,,,2.0,,,Non-Networked,,200-9,43.101378,-78.941072,2021-05-06T00:00:00.000,63478,2021-05-06 13:19:19,P,,,2014-09-19T00:00:00.000,,,,,J1772,US,,,,Public,,public,,,AIRPORT,,,,,,,Free,,,,,,,,,,"{'type': 'Point', 'coordinates': [-78.941072, 43.101378]}",132,168,2131
ELEC,ADAMS STATION 101 DERZEE CT,101 Derzee Ct,,Delmar,NY,12054,,888-758-4389,E,,Public,24 hours daily,,,,,,2.0,,,ChargePoint Network,{'url': 'http://www.chargepoint.com/'},GPS,42.606556,-73.84992,2021-07-15T00:00:00.000,165393,2021-07-15 00:25:19,,,,2020-08-22T00:00:00.000,,,,,J1772,US,,,,Public,,public,,,,,,,,,,,,,,,,,,,,"{'type': 'Point', 'coordinates': [-73.84992, 42.606556]}",837,1180,2030
ELEC,DEMCO TRUHILTONCHARGE,3512 NY-434,,Vestal,NY,13850,,888-758-4389,E,,Public,24 hours daily,,,,,,2.0,,,ChargePoint Network,{'url': 'http://www.chargepoint.com/'},GPS,42.096362,-75.987614,2021-07-15T00:00:00.000,169881,2021-07-15 00:25:19,,,,2020-12-03T00:00:00.000,,,,,J1772,US,,,,Public,,public,,,,,,,,,,,,,,,,,,,,"{'type': 'Point', 'coordinates': [-75.987614, 42.096362]}",937,466,2033
ELEC,iPark NYC The Carnegie Garage - Tesla Destination,200 E 94th St,,New York,NY,10128,,855-472-7569  877-798-3752,E,,Public,24 hours daily; for customer use only; see valet for access,,,,,,3.0,,,Tesla Destination,{'url': 'https://www.tesla.com/destination-charging'},200-9,40.783355,-73.949998,2020-11-03T00:00:00.000,115043,2021-03-11 23:22:17,P,,,2016-09-01T00:00:00.000,,,,,J1772 TESLA,US,,,,Public,,public,,,PAY_GARAGE,,,,,,,Free,,,,,,,,,,"{'type': 'Point', 'coordinates': [-73.949998, 40.783355]}",749,583,2095
ELEC,ULSTER COUNTY DSS 2,1 Development Court,,Kingston,NY,12401,,888-758-4389,E,,Public,24 hours daily,,,,,,2.0,,,ChargePoint Network,{'url': 'http://www.chargepoint.com/'},GPS,41.94795,-73.996324,2021-07-15T00:00:00.000,180145,2021-07-15 00:25:19,,,,2021-01-27T00:00:00.000,,,,,J1772,US,,,,Public,,public,,,,,,,,,,,,,,,,,,,,"{'type': 'Point', 'coordinates': [-73.996324, 41.94795]}",408,79,2182
ELEC,14 HUDSON 14 HUDSON 1.1,14 Hudson Ave,,Glens Falls,NY,12801,,888-758-4389,E,,Public,24 hours daily,,,,,,2.0,,,ChargePoint Network,{'url': 'http://www.chargepoint.com/'},GPS,43.308037,-73.64537,2021-07-15T00:00:00.000,153509,2021-07-15 00:25:19,,,,2020-02-07T00:00:00.000,,,,,J1772,US,,,,Public,,public,,,,,,,,,,,,,,,,,,,,"{'type': 'Point', 'coordinates': [-73.64537, 43.308037]}",824,783,2183
ELEC,RRH RIEDMAN CTR NG2,1455 East Ridge Road,,Rochester,NY,14621,,888-758-4389,E,,Public,24 hours daily,,,,,,2.0,,,ChargePoint Network,{'url': 'http://www.chargepoint.com/'},GPS,43.19744,-77.578415,2021-07-15T00:00:00.000,174296,2021-07-15 00:25:19,,,,2021-01-27T00:00:00.000,,,,,J1772,US,,,,Public,,public,,,,,,,,,,,,,,,,,,,,"{'type': 'Point', 'coordinates': [-77.578415, 43.19744]}",545,1680,2093
ELEC,Bear Mountain State Park,3006 Seven Lakes Pkwy,,Bear Mountain,NY,10911,,866-816-7584,E,,Public,24 hours daily,,,,,,1.0,,,EV Connect,{'url': 'http://evconnect.com/'},200-8,41.309433,-73.990271,2020-05-06T00:00:00.000,123056,2021-03-11 23:22:17,P,,,2019-04-01T00:00:00.000,,,,,J1772,US,,,,Public,,public,,,PARK,,,,,,,,,,,,,,,,,"{'type': 'Point', 'coordinates': [-73.990271, 41.309433]}",528,1652,628
ELEC,2 WEST AVE 2 WEST 1.1,2 West Ave,,Saratoga Springs,NY,12866,,888-758-4389,E,,Public,24 hours daily,,,,,,2.0,,,ChargePoint Network,{'url': 'http://www.chargepoint.com/'},GPS,43.084297,-73.803154,2021-07-15T00:00:00.000,182002,2021-07-15 00:25:19,,,,2021-01-27T00:00:00.000,,,,,J1772,US,,,,Public,,public,,,,,,,,,,,,,,,,,,,,"{'type': 'Point', 'coordinates': [-73.803154, 43.084297]}",994,147,2141
ELEC,1741 RT 9 EV 3,1741 U.S. 9,,Clifton Park,NY,12065,,888-758-4389,E,,Public,24 hours daily,,,,,,2.0,,,ChargePoint Network,{'url': 'http://www.chargepoint.com/'},GPS,42.86922,-73.77308,2021-07-15T00:00:00.000,185435,2021-07-15 00:25:19,,,,2021-02-27T00:00:00.000,,,,,J1772,US,,,,Public,,public,,,,,,,,,,,,,,,,,,,,"{'type': 'Point', 'coordinates': [-73.77308, 42.86922]}",1009,1190,2141
ELEC,MARKET 32 EV BARNEY RD EV4,1 S Barney Rd,,Clifton Park,NY,12065,,888-758-4389,E,,Public,24 hours daily,,,,,,2.0,,,ChargePoint Network,{'url': 'http://www.chargepoint.com/'},GPS,42.845312,-73.807884,2021-07-15T00:00:00.000,156641,2021-07-15 00:25:19,,,,2020-05-23T00:00:00.000,,,,,J1772,US,,,,Public,,public,,,,,,,,,,,,,,,,,,,,"{'type': 'Point', 'coordinates': [-73.807884, 42.845312]}",1009,1190,2141
ELEC,ULSTER COUNTY HEALTH DEPT 1,239 Golden Hill Dr,,Kingston,NY,12401,,888-758-4389,E,,Public,24 hours daily,,,,,,2.0,,,ChargePoint Network,{'url': 'http://www.chargepoint.com/'},GPS,41.91707,-74.019002,2021-07-15T00:00:00.000,180102,2021-07-15 00:25:19,,,,2021-01-27T00:00:00.000,,,,,J1772,US,,,,Public,,public,,,,,,,,,,,,,,,,,,,,"{'type': 'Point', 'coordinates': [-74.019002, 41.91707]}",425,79,2182
ELEC,ROSENBLUM300 GREAT OAKS 200,200 Great Oaks Blvd,,Albany,NY,12203,,888-758-4389,E,,Public,24 hours daily,,,,,,2.0,,,ChargePoint Network,{'url': 'http://www.chargepoint.com/'},GPS,42.682162,-73.848147,2021-07-15T00:00:00.000,185187,2021-07-15 00:25:19,,,,2021-02-19T00:00:00.000,,,,,J1772,US,,,,Public,,public,,,,,,,,,,,,,,,,,,,,"{'type': 'Point', 'coordinates': [-73.848147, 42.682162]}",832,40,2030
ELEC,854ELLICOTT 134 HIGH ST 10,1040 Michigan Ave,,Buffalo,NY,14203,,888-758-4389,E,,Public,24 hours daily,,,,,,2.0,,,ChargePoint Network,{'url': 'http://www.chargepoint.com/'},GPS,42.901237,-78.864043,2021-07-15T00:00:00.000,169910,2021-07-15 00:25:19,,,,2020-12-04T00:00:00.000,,,,,J1772,US,,,,Public,,public,,,,,,,,,,,,,,,,,,,,"{'type': 'Point', 'coordinates': [-78.864043, 42.901237]}",300,34,2041
ELEC,Icon Parking OMNI - Tesla Destination,143-159 W 68th St,,New York,NY,10023,,212-874-9664  877-798-3752,E,,Public,24 hours daily; see valet for access,,,,,,3.0,,,Tesla Destination,{'url': 'https://www.tesla.com/destination-charging'},200-8,40.775545,-73.9818,2020-11-03T00:00:00.000,115015,2021-03-11 23:22:17,P,,,2018-11-01T00:00:00.000,,,,,J1772 TESLA,US,,,,Public,,public,,,PAY_GARAGE,,,,,,,Free,,,,,,,,,,"{'type': 'Point', 'coordinates': [-73.9818, 40.775545]}",749,750,2095
ELEC,Gunlocke Co,1 Gunlocke Dr,,Wayland,NY,14572,,866-816-7584,E,,Public,24 hours daily; Also accepts Paypal,A D M V,,,,,4.0,,,EV Connect,{'url': 'http://evconnect.com/'},GPS,42.5553841,-77.5891292,2020-04-08T00:00:00.000,155031,2021-03-11 23:22:17,P,,,2018-08-09T00:00:00.000,,,,,J1772,US,,,,Public,,public,,,SHOPPING_CENTER,,,,,,,,,,,,,,,,,"{'type': 'Point', 'coordinates': [-77.5891292, 42.5553841]}",20,417,2178
ELEC,SUNY Empire State College,2 Union Ave,,Saratoga Springs,NY,12866,,866-816-7584,E,,Public,24 hours daily,,,,,,2.0,,,EV Connect,{'url': 'http://evconnect.com/'},GPS,43.0773406,-73.7824426999999,2020-04-08T00:00:00.000,123077,2021-03-11 23:22:17,P,,,2019-04-01T00:00:00.000,,,,,J1772,US,,,,Public,,public,,,COLLEGE_CAMPUS,,,,,,,,,,,,,,,,,"{'type': 'Point', 'coordinates': [-73.7824426999999, 43.0773406]}",994,147,2141
